[{"City": "Valdez", "NAME": "Valdez Job Center", "Zip": "99686-0590", "LONGITUDE": -146.352125, "State": "AK", "LATITUDE": 61.126641, "TYPE": "Affiliate Job Center", "Street_Address": "213 Meals Avenue, State Office Building, Room 22"}, {"City": "Anchorage", "NAME": "Anchorage Job Center Muldoon", "Zip": "99504", "LONGITUDE": -149.733253, "State": "AK", "LATITUDE": 61.2106, "TYPE": "Affiliate Job Center", "Street_Address": "1251 Muldoon Road, Suite 111"}, {"City": "Glenallen", "NAME": "Glenallen Job Center", "Zip": "99588-0109", "LONGITUDE": -145.8326, "State": "AK", "LATITUDE": 62.1753, "TYPE": "Affiliate Job Center", "Street_Address": "Mile 186.5 Glenn Highway, P.O. Box 109"}, {"City": "Nome", "NAME": "Nome Job Center", "Zip": "99762", "LONGITUDE": -165.40357, "State": "AK", "LATITUDE": 64.496953, "TYPE": "Affiliate Job Center", "Street_Address": "320 Front Street"}, {"City": "Wasilla", "NAME": "Mat-Su Job Center", "Zip": "99654", "LONGITUDE": -149.474425, "State": "AK", "LATITUDE": 61.581237, "TYPE": "Affiliate Job Center", "Street_Address": "877 West Commercial Drive"}, {"City": "Kodiak", "NAME": "Kodiak Job Center", "Zip": "99615-6315", "LONGITUDE": -152.402743, "State": "AK", "LATITUDE": 57.788635, "TYPE": "Affiliate Job Center", "Street_Address": "211 Mission Road, Suite 103"}, {"City": "Homer", "NAME": "Homer Job Center", "Zip": "99603", "LONGITUDE": -151.524212, "State": "AK", "LATITUDE": 59.643339, "TYPE": "Affiliate Job Center", "Street_Address": "3670 Lake Street, Suite 300"}, {"City": "Dillingham", "NAME": "Bristol Bay Job Center", "Zip": "99576-1149", "LONGITUDE": -158.499887, "State": "AK", "LATITUDE": 59.0432, "TYPE": "Affiliate Job Center", "Street_Address": "503 Wood River Road, PO Box 1149"}, {"City": "Tok", "NAME": "Tok Job Center", "Zip": "99780-0440", "LONGITUDE": -142.1646, "State": "AK", "LATITUDE": 63.577, "TYPE": "Affiliate Job Center", "Street_Address": "State Office Building, Mile Post  1314, P.O. Box 440"}, {"City": "Sitka", "NAME": "Sitka Job Center", "Zip": "99835-7563", "LONGITUDE": -135.334584, "State": "AK", "LATITUDE": 57.052532, "TYPE": "Affiliate Job Center", "Street_Address": "304 Lake Street, Room 101"}, {"City": "Seward", "NAME": "Seward Job Center", "Zip": "99664-1009", "LONGITUDE": -149.443805, "State": "AK", "LATITUDE": 60.110518, "TYPE": "Affiliate Job Center", "Street_Address": "809 2nd Avenue, Suite 102, P.O. Box 1009"}, {"City": "Eagle River", "NAME": "Eagle River Job Center", "Zip": "99577", "LONGITUDE": -149.570874, "State": "AK", "LATITUDE": 61.326326, "TYPE": "Affiliate Job Center", "Street_Address": "11723 Old Glenn Highway, B-4"}, {"City": "Barrow", "NAME": "Barrow Job Center", "Zip": "99723", "LONGITUDE": -156.786907, "State": "AK", "LATITUDE": 71.293162, "TYPE": "Affiliate Job Center", "Street_Address": "1078 Kiogak Street, PO Box 949"}, {"City": "Kotzebue", "NAME": "Kotzebue Job Center", "Zip": "99752-1209", "LONGITUDE": -162.598704, "State": "AK", "LATITUDE": 66.899004, "TYPE": "Affiliate Job Center", "Street_Address": "333 Shore Avenue, P.O. Box 1209"}, {"City": "Birmingham", "NAME": "Lawson State Community College One Stop Career Center", "Zip": "35221", "LONGITUDE": -86.888378, "State": "AL", "LATITUDE": 33.44944, "TYPE": "Affiliate Job Center", "Street_Address": "3060 Wilson Road SW, OneStop Bldg."}, {"City": "Greenville", "NAME": "Greenville Career Center", "Zip": "36037", "LONGITUDE": -86.624531, "State": "AL", "LATITUDE": 31.829661, "TYPE": "Affiliate Job Center", "Street_Address": "117 West Commerce Street"}, {"City": "Scottsboro", "NAME": "Scottsboro Career Center", "Zip": "35769", "LONGITUDE": -86.029094, "State": "AL", "LATITUDE": 34.650381, "TYPE": "Affiliate Job Center", "Street_Address": "23123 John T. Reid Parkway"}, {"City": "Birmingham", "NAME": "Jefferson County Center for Workforce Development", "Zip": "35222", "LONGITUDE": -86.783176, "State": "AL", "LATITUDE": 33.519322, "TYPE": "Affiliate Job Center", "Street_Address": "3420 3rd Avenue South, Suite 200"}, {"City": "Vernon", "NAME": "Vernon Career Center", "Zip": "35592", "LONGITUDE": -88.087816, "State": "AL", "LATITUDE": 33.666667, "TYPE": "Affiliate Job Center", "Street_Address": "Highway 17, inside Lamar County School of Technology"}, {"City": "Blountsville", "NAME": "Blountsville Career Center", "Zip": "35031", "LONGITUDE": -86.589957, "State": "AL", "LATITUDE": 34.076721, "TYPE": "Affiliate Job Center", "Street_Address": "68644 Main Street, Suite 5"}, {"City": "Monroeville", "NAME": "Monroeville Career Center", "Zip": "36460", "LONGITUDE": -87.3097, "State": "AL", "LATITUDE": 31.5102, "TYPE": "Affiliate Job Center", "Street_Address": "33 Outlet Drive"}, {"City": "Fayette", "NAME": "Fayette Career Center", "Zip": "35555", "LONGITUDE": -87.815522, "State": "AL", "LATITUDE": 33.724618, "TYPE": "Affiliate Job Center", "Street_Address": "2631 Temple Avenue North, Room 37-B"}, {"City": "Bessemer", "NAME": "T A Lawson State-Bessemer", "Zip": "35022", "LONGITUDE": -86.991924, "State": "AL", "LATITUDE": 33.373174, "TYPE": "Affiliate Job Center", "Street_Address": "1100 Ninth Avenue SW, Millsap Bldg. - (Satellite of the Employment Office)"}, {"City": "Roanoke", "NAME": "Roanoke Career Center", "Zip": "36274", "LONGITUDE": -85.3588, "State": "AL", "LATITUDE": 33.150415, "TYPE": "Affiliate Job Center", "Street_Address": "3928 Hwy 431"}, {"City": "Andalusia", "NAME": "Andalusia Career Center", "Zip": "36420", "LONGITUDE": -86.451669, "State": "AL", "LATITUDE": 31.321783, "TYPE": "Affiliate Job Center", "Street_Address": "1000 Dannelly Avenue, LBW Community College"}, {"City": "Alexander City", "NAME": "Alexander City Career Center", "Zip": "35010", "LONGITUDE": -85.9419, "State": "AL", "LATITUDE": 32.9261, "TYPE": "Affiliate Job Center", "Street_Address": "1375 Junior College Drive, P.O. Box 2010 (Alexander City, AL 35011)"}, {"City": "Cabot", "NAME": "Arkansas Workforce Center at Cabot", "Zip": "72023", "LONGITUDE": -92.017233, "State": "AR", "LATITUDE": 34.973466, "TYPE": "Affiliate Job Center", "Street_Address": "1 City Plaza, Suite C"}, {"City": "Arkadelphia", "NAME": "Arkadelphia DWS Office", "Zip": "71923", "LONGITUDE": -93.053531, "State": "AR", "LATITUDE": 34.118031, "TYPE": "Affiliate Job Center", "Street_Address": "502 South 6th Street, P.O. Box 620"}, {"City": "Van Buren", "NAME": "Arkansas Workforce Center at Van Buren", "Zip": "72956", "LONGITUDE": -94.343321, "State": "AR", "LATITUDE": 35.436523, "TYPE": "Affiliate Job Center", "Street_Address": "1500 East Main Street, P.O. Box 1266 (Zip Code 72957)"}, {"City": "Prescott", "NAME": "Dept. of Human Services Office", "Zip": "71857", "LONGITUDE": -93.378801, "State": "AR", "LATITUDE": 33.804256, "TYPE": "Affiliate Job Center", "Street_Address": "355 W. 1st St."}, {"City": "Rogers", "NAME": "Arkansas Workforce Center at Rogers", "Zip": "72757-0999", "LONGITUDE": -94.143669, "State": "AR", "LATITUDE": 36.334069, "TYPE": "Affiliate Job Center", "Street_Address": "100 North Dixieland Road, Suite B1-5 P.O. Box 99 AR, 72756"}, {"City": "Magnolia", "NAME": "Arkansas Workforce Center at Magnolia", "Zip": "71754", "LONGITUDE": -93.224488, "State": "AR", "LATITUDE": 33.267839, "TYPE": "Affiliate Job Center", "Street_Address": "203 North Fredrick, P.O. Box 369"}, {"City": "Paragould", "NAME": "Arkansas Workforce Center at Paragould", "Zip": "72450", "LONGITUDE": -90.508098, "State": "AR", "LATITUDE": 36.047267, "TYPE": "Affiliate Job Center", "Street_Address": "1015 Linwood Drive, Suite 4, P.O. Box 336  Paragould, AR  72451"}, {"City": "Pine Bluff", "NAME": "Arkansas Department of Workforce Services at Pine Bluff", "Zip": "71611", "LONGITUDE": -91.998316, "State": "AR", "LATITUDE": 34.219869, "TYPE": "Affiliate Job Center", "Street_Address": "1001 South Tennessee Street, P.O. Box 8308"}, {"City": "Monticello", "NAME": "Arkansas Workforce Center at Monticello", "Zip": "71655", "LONGITUDE": -91.791654, "State": "AR", "LATITUDE": 33.621074, "TYPE": "Affiliate Job Center", "Street_Address": "477 South Main Street, P.O.Box 619"}, {"City": "Benton", "NAME": "Arkansas Workforce Center at Benton", "Zip": "72015", "LONGITUDE": -92.583422, "State": "AR", "LATITUDE": 34.557653, "TYPE": "Affiliate Job Center", "Street_Address": "400 Edison Avenue, P.O. Box 1349"}, {"City": "Mena", "NAME": "Arkansas Dept. of  Workforce Services", "Zip": "71953", "LONGITUDE": -94.204855, "State": "AR", "LATITUDE": 34.59445, "TYPE": "Affiliate Job Center", "Street_Address": "601 C Highway 71 North, P.O. Box 230"}, {"City": "Newport", "NAME": "Arkansas Department of Workforce Services", "Zip": "72112", "LONGITUDE": -91.189245, "State": "AR", "LATITUDE": 35.63962, "TYPE": "Affiliate Job Center", "Street_Address": "7648 Victory Blvd., Suite B"}, {"City": "Magnolia", "NAME": "SAU Tech Adult Education Center of Magnolia and Literacy Council", "Zip": "71753", "LONGITUDE": -93.23233, "State": "AR", "LATITUDE": 33.256278, "TYPE": "Affiliate Job Center", "Street_Address": "811 Calhoun Road"}, {"City": "Morrilton", "NAME": "Arkansas Workforce Center at Morrilton", "Zip": "72110", "LONGITUDE": -92.727449, "State": "AR", "LATITUDE": 35.164353, "TYPE": "Affiliate Job Center", "Street_Address": "1527 East Harding, P.O. Box 713"}, {"City": "North Little Rock", "NAME": "Arkansas Workforce Center at North Little Rock Pulaski County", "Zip": "72116", "LONGITUDE": -92.223733, "State": "AR", "LATITUDE": 34.794878, "TYPE": "Affiliate Job Center", "Street_Address": "3901 McCain Park Drive, Suite 102"}, {"City": "Fayetteville", "NAME": "Arkansas Workforce Center at Fayetteville", "Zip": "72701", "LONGITUDE": -94.190032, "State": "AR", "LATITUDE": 36.055298, "TYPE": "Affiliate Job Center", "Street_Address": "2143 West Martin Luther King Jr. Boulevard"}, {"City": "Texarkana", "NAME": "Texarkana Workforce Center (houses Arkansas Workforce Center)", "Zip": "75503", "LONGITUDE": -94.062535, "State": "AR", "LATITUDE": 33.468016, "TYPE": "Affiliate Job Center", "Street_Address": "1702 Hampton Rd"}, {"City": "Clinton", "NAME": "Arkansas Workforce Center at Clinton", "Zip": "72031", "LONGITUDE": -92.46, "State": "AR", "LATITUDE": 35.5972, "TYPE": "Affiliate Job Center", "Street_Address": "100 Success Drive, Room 173"}, {"City": "Blytheville", "NAME": "Arkansas Dept. of Workforce Services", "Zip": "72316", "LONGITUDE": -89.918726, "State": "AR", "LATITUDE": 35.89674, "TYPE": "Affiliate Job Center", "Street_Address": "2825 S. Division, P.O. Box 1409, Blytheville, AR"}, {"City": "Van Buren", "NAME": "Arkansas Department of Workforce Services - Van Buren", "Zip": "72956", "LONGITUDE": -94.3428, "State": "AR", "LATITUDE": 35.4576, "TYPE": "Affiliate Job Center", "Street_Address": "605 Alma Blvd Circle"}, {"City": "Mountain Home", "NAME": "Arkansas Workforce at Mountain Home", "Zip": "72654", "LONGITUDE": -92.38055, "State": "AR", "LATITUDE": 36.34203, "TYPE": "Affiliate Job Center", "Street_Address": "1058 Highland Circle, Suite 20"}, {"City": "West Memphis", "NAME": "Arkansas Workforce Centers", "Zip": "72301", "LONGITUDE": -90.230427, "State": "AR", "LATITUDE": 35.146796, "TYPE": "Affiliate Job Center", "Street_Address": "2003 West Broadway"}, {"City": "DeQueen", "NAME": "Arkansas Workforce Center at DeQueen", "Zip": "71832", "LONGITUDE": -94.326692, "State": "AR", "LATITUDE": 34.045454, "TYPE": "Affiliate Job Center", "Street_Address": "858 East Collin Raye Drive"}, {"City": "Dumas", "NAME": "Arkansas Workforce Center at Dumas", "Zip": "71639", "LONGITUDE": -91.492038, "State": "AR", "LATITUDE": 33.887176, "TYPE": "Affiliate Job Center", "Street_Address": "130 West Waterman"}, {"City": "Bisbee", "NAME": "DES Bisbee", "Zip": "85603", "LONGITUDE": -109.885362, "State": "AZ", "LATITUDE": 31.418862, "TYPE": "Affiliate Job Center", "Street_Address": "207 Bisbee Road"}, {"City": "Payson", "NAME": "DES", "Zip": "85541", "LONGITUDE": -111.326963, "State": "AZ", "LATITUDE": 34.239319, "TYPE": "Affiliate Job Center", "Street_Address": "100 N Tonto St., Suite 100"}, {"City": "Sierra Vista", "NAME": "DES Sierra Vista", "Zip": "85635", "LONGITUDE": -110.254855, "State": "AZ", "LATITUDE": 31.534572, "TYPE": "Affiliate Job Center", "Street_Address": "1843 Paseo San Luis"}, {"City": "Sierra Vista", "NAME": "Cochise College Career Services", "Zip": "85635", "LONGITUDE": -110.248659, "State": "AZ", "LATITUDE": 31.560176, "TYPE": "Affiliate Job Center", "Street_Address": "901 North Colombo Avenue (Sierra Vista Campus), 4190 W. Highway 80, Douglas, AZ 85607 (Douglas Campus)"}, {"City": "Page", "NAME": "DES", "Zip": "86040", "LONGITUDE": -111.458651, "State": "AZ", "LATITUDE": 36.924808, "TYPE": "Affiliate Job Center", "Street_Address": "1057 West Vista, P.O. Box 4269"}, {"City": "Globe", "NAME": "Gila County Division of Health and Community Services", "Zip": "85501", "LONGITUDE": -110.812903, "State": "AZ", "LATITUDE": 33.413882, "TYPE": "Affiliate Job Center", "Street_Address": "5515 South Apache Avenue, Suite 200"}, {"City": "Mesa", "NAME": "DES Mesa", "Zip": "85210", "LONGITUDE": -111.834644, "State": "AZ", "LATITUDE": 33.41299, "TYPE": "Affiliate Job Center", "Street_Address": "120 W. 1st Ave."}, {"City": "Bullhead City", "NAME": "Mohave County Community Services", "Zip": "86442", "LONGITUDE": -114.624922, "State": "AZ", "LATITUDE": 35.107897, "TYPE": "Affiliate Job Center", "Street_Address": "720 Hancock Road"}, {"City": "Lake Havasu City", "NAME": "Mohave County Community Services", "Zip": "86403", "LONGITUDE": -114.345363, "State": "AZ", "LATITUDE": 34.507644, "TYPE": "Affiliate Job Center", "Street_Address": "2001 College Drive, Suite 94"}, {"City": "Tucson", "NAME": "DES Employment Service", "Zip": "85705", "LONGITUDE": -110.97664, "State": "AZ", "LATITUDE": 32.264777, "TYPE": "Affiliate Job Center", "Street_Address": "316 W. Fort. Lowell"}, {"City": "Tucson", "NAME": "DES Employment Service", "Zip": "85711", "LONGITUDE": -110.876315, "State": "AZ", "LATITUDE": 32.207038, "TYPE": "Affiliate Job Center", "Street_Address": "5441 East 22nd Street, Suite 101"}, {"City": "Somerton", "NAME": "Cocopah Indian Tribe - Cocopah Vocational Training Center", "Zip": "85350", "LONGITUDE": -114.7358, "State": "AZ", "LATITUDE": 32.606, "TYPE": "Affiliate Job Center", "Street_Address": "14515 S. Veterans Drive"}, {"City": "Parker", "NAME": "Colorado River Indian Tribes Employment Development and Training", "Zip": "85344", "LONGITUDE": -114.468555, "State": "AZ", "LATITUDE": 33.848759, "TYPE": "Affiliate Job Center", "Street_Address": "26600 Mohave Road"}, {"City": "Peach Springs", "NAME": "Hualapai Education and Training Center", "Zip": "86434", "LONGITUDE": -113.312, "State": "AZ", "LATITUDE": 35.7695, "TYPE": "Affiliate Job Center", "Street_Address": "460 Hualapai Way, P.O. Box 179"}, {"City": "Winterhaven", "NAME": "Quechan Indian Tribe", "Zip": "92283", "LONGITUDE": -114.616207, "State": "AZ", "LATITUDE": 32.760737, "TYPE": "Affiliate Job Center", "Street_Address": "465 Picacho Road, P.O. Box 1899 (Yuma, AZ) 85366"}, {"City": "San Carlos", "NAME": "San Carlos Apache Tribe", "Zip": "85550", "LONGITUDE": -110.4524, "State": "AZ", "LATITUDE": 33.3496, "TYPE": "Affiliate Job Center", "Street_Address": "20 San Carlos Avenue"}, {"City": "Whiteriver", "NAME": "White Mountain Apache Tribe", "Zip": "85941", "LONGITUDE": -109.9514, "State": "AZ", "LATITUDE": 33.8932, "TYPE": "Affiliate Job Center", "Street_Address": "100 E. Walnut St."}, {"City": "Kingman", "NAME": "DES", "Zip": "86401", "LONGITUDE": -114.054071, "State": "AZ", "LATITUDE": 35.192452, "TYPE": "Affiliate Job Center", "Street_Address": "301 Pine Street"}, {"City": "Globe", "NAME": "Central Arizona Governments (CAG)", "Zip": "85502", "LONGITUDE": -110.812903, "State": "AZ", "LATITUDE": 33.413882, "TYPE": "Affiliate Job Center", "Street_Address": "5515 South Apache Avenue, Suite 200, P.O. Box 912"}, {"City": "Scottsdale", "NAME": "Vista Del Camino", "Zip": "85257", "LONGITUDE": -111.914674, "State": "AZ", "LATITUDE": 33.458315, "TYPE": "Affiliate Job Center", "Street_Address": "7700 East Roosevelt St."}, {"City": "Bullhead City", "NAME": "DES", "Zip": "86442", "LONGITUDE": -114.598069, "State": "AZ", "LATITUDE": 35.091009, "TYPE": "Affiliate Job Center", "Street_Address": "2601 South Highway 95"}, {"City": "Lake Havasu City", "NAME": "DES", "Zip": "86403", "LONGITUDE": -114.350678, "State": "AZ", "LATITUDE": 34.47585, "TYPE": "Affiliate Job Center", "Street_Address": "228 London Bridge Road"}, {"City": "Phoenix", "NAME": "Phoenix Workforce Connection - South", "Zip": "85040", "LONGITUDE": -112.073491, "State": "AZ", "LATITUDE": 33.403289, "TYPE": "Affiliate Job Center", "Street_Address": "4732 South Central Avenue"}, {"City": "Tucson", "NAME": "DES Employment Service", "Zip": "85714", "LONGITUDE": -110.971291, "State": "AZ", "LATITUDE": 32.163198, "TYPE": "Affiliate Job Center", "Street_Address": "195 West Irvington"}, {"City": "Nogales", "NAME": "Santa Cruz County One Stop Career Center", "Zip": "85621", "LONGITUDE": -110.931443, "State": "AZ", "LATITUDE": 31.343294, "TYPE": "Affiliate Job Center", "Street_Address": "610 N. Morley Avenue"}, {"City": "Prescott Valley", "NAME": "Yavapai Workforce Affiliate Office Prescott Valley", "Zip": "86314", "LONGITUDE": -112.315906, "State": "AZ", "LATITUDE": 34.589788, "TYPE": "Affiliate Job Center", "Street_Address": "3274 Bob Drive"}, {"City": "Mohave Valley", "NAME": "Fort Mojave Indian Tribe WIA OneStop Program", "Zip": "86440", "LONGITUDE": -114.597669, "State": "AZ", "LATITUDE": 34.909705, "TYPE": "Affiliate Job Center", "Street_Address": "8490 South Highway 95, Suite 102, P.O  Box 5896 (86446)"}, {"City": "Kykotsmovi", "NAME": "Hopi Tribe", "Zip": "86039", "LONGITUDE": -110.5108, "State": "AZ", "LATITUDE": 35.7203, "TYPE": "Affiliate Job Center", "Street_Address": "Main Street off Highway 264, P.O. Box 123"}, {"City": "Tucson", "NAME": "Pascua Yaqui Tribe", "Zip": "85757", "LONGITUDE": -111.063207, "State": "AZ", "LATITUDE": 32.117298, "TYPE": "Affiliate Job Center", "Street_Address": "7474 South Camino De Oeste"}, {"City": "Scottsdale", "NAME": "Salt River Pima-Maricopa Indian Community", "Zip": "85256", "LONGITUDE": -111.864513, "State": "AZ", "LATITUDE": 33.487707, "TYPE": "Affiliate Job Center", "Street_Address": "10005 East Osborn Road"}, {"City": "Sells", "NAME": "Tohono O`odham Nation Education-One Stop Division", "Zip": "85634", "LONGITUDE": -111.889824, "State": "AZ", "LATITUDE": 31.92115, "TYPE": "Affiliate Job Center", "Street_Address": "SR 86 & Indian Route 19, P.O. Box 837"}, {"City": "Camp Verde", "NAME": "Yavapai Apache Nation", "Zip": "86322", "LONGITUDE": -111.892058, "State": "AZ", "LATITUDE": 34.626837, "TYPE": "Affiliate Job Center", "Street_Address": "2400 West Datsi"}, {"City": "Douglas", "NAME": "DES - Employment Service Douglas", "Zip": "85607", "LONGITUDE": -109.55425, "State": "AZ", "LATITUDE": 31.341232, "TYPE": "Affiliate Job Center", "Street_Address": "515 E. 7th Street"}, {"City": "Escondido", "NAME": "North County Inland Career Center", "Zip": "92027", "LONGITUDE": -117.052869, "State": "CA", "LATITUDE": 33.139396, "TYPE": "Affiliate Job Center", "Street_Address": "463 North Midway Drive, Suite 100 B"}, {"City": "Dinuba", "NAME": "Proteus, Inc. Dinuba One-Stop Service Center Employment Connection", "Zip": "93618", "LONGITUDE": -119.39346, "State": "CA", "LATITUDE": 36.538523, "TYPE": "Affiliate Job Center", "Street_Address": "400 West Tulare Street"}, {"City": "Taft", "NAME": "Career Services Center - Taft", "Zip": "93268", "LONGITUDE": -119.465195, "State": "CA", "LATITUDE": 35.141835, "TYPE": "Affiliate Job Center", "Street_Address": "119 North 10th Street"}, {"City": "Indio", "NAME": "The Win Center Youth Opportunity Center", "Zip": "92201", "LONGITUDE": -116.21454, "State": "CA", "LATITUDE": 33.717908, "TYPE": "Affiliate Job Center", "Street_Address": "45-570 Grace St., Suite 1"}, {"City": "Visalia", "NAME": "Proteus Inc., Visalia One-Stop Services Center", "Zip": "93291", "LONGITUDE": -119.293966, "State": "CA", "LATITUDE": 36.339446, "TYPE": "Affiliate Job Center", "Street_Address": "224 North West 3rd Street"}, {"City": "Hemet", "NAME": "Empower Youth, Youth Opportunity Center", "Zip": "92543", "LONGITUDE": -116.971745, "State": "CA", "LATITUDE": 33.762744, "TYPE": "Affiliate Job Center", "Street_Address": "930 North State Street"}, {"City": "Perris", "NAME": "The Oasis Youth Opportunities Center", "Zip": "92570", "LONGITUDE": -117.218906, "State": "CA", "LATITUDE": 33.784239, "TYPE": "Affiliate Job Center", "Street_Address": "351 Wilkerson Ave., Suite F"}, {"City": "Riverside", "NAME": "Rubidoux Youth Opportunity Center", "Zip": "92509", "LONGITUDE": -117.408396, "State": "CA", "LATITUDE": 33.997503, "TYPE": "Affiliate Job Center", "Street_Address": "5656 Mission Blvd."}, {"City": "San Diego", "NAME": "South Metro / Grant Hill Branch", "Zip": "92102", "LONGITUDE": -117.10552, "State": "CA", "LATITUDE": 32.711439, "TYPE": "Affiliate Job Center", "Street_Address": "4153 Market Street, Suite C"}, {"City": "Los Angeles", "NAME": "LA South-Compton Workforce Services", "Zip": "90061", "LONGITUDE": -118.265184, "State": "CA", "LATITUDE": 33.91761, "TYPE": "Affiliate Job Center", "Street_Address": "12700 South Avalon Blvd."}, {"City": "Los Angeles", "NAME": "East Los Angeles WorkSource Center", "Zip": "90022", "LONGITUDE": -118.156094, "State": "CA", "LATITUDE": 34.020206, "TYPE": "Affiliate Job Center", "Street_Address": "5301 Whittier Blvd., 2nd Floor"}, {"City": "Weaverville", "NAME": "Smart Business Resource Center", "Zip": "96093", "LONGITUDE": -122.93734, "State": "CA", "LATITUDE": 40.728057, "TYPE": "Affiliate Job Center", "Street_Address": "790 Main Street, Suite 618, P. O. Box 1430"}, {"City": "Los Angeles", "NAME": "Jordon Downs Worksource Center", "Zip": "90059", "LONGITUDE": -118.233106, "State": "CA", "LATITUDE": 33.931413, "TYPE": "Affiliate Job Center", "Street_Address": "2224 East 114 St"}, {"City": "Hemet", "NAME": "Hemet Workforce Development Center", "Zip": "92543", "LONGITUDE": -116.971857, "State": "CA", "LATITUDE": 33.759479, "TYPE": "Affiliate Job Center", "Street_Address": "749 N. State Street"}, {"City": "Blythe", "NAME": "Employment  Development Department Workforce Services", "Zip": "92225", "LONGITUDE": -114.611259, "State": "CA", "LATITUDE": 33.610223, "TYPE": "Affiliate Job Center", "Street_Address": "1277 West Hobson Way"}, {"City": "Santa Paula", "NAME": "Santa Clara Valley Job & Career Center", "Zip": "93060", "LONGITUDE": -119.065097, "State": "CA", "LATITUDE": 34.352404, "TYPE": "Affiliate Job Center", "Street_Address": "725 East Main Street, Suite 101"}, {"City": "Walnut Park", "NAME": "Florence-Firestone Employment Resource Center", "Zip": "90255", "LONGITUDE": -118.232642, "State": "CA", "LATITUDE": 33.974678, "TYPE": "Affiliate Job Center", "Street_Address": "2166 East Florence Ave, 2nd Floor"}, {"City": "Jackson", "NAME": "The Job Connection, Amador", "Zip": "95642", "LONGITUDE": -120.767526, "State": "CA", "LATITUDE": 38.355585, "TYPE": "Affiliate Job Center", "Street_Address": "245 New York Ranch Road, Suite A"}, {"City": "Bonita", "NAME": "Bonita Sunnyside Library One-Stop Career Center Branch", "Zip": "91902", "LONGITUDE": -117.032086, "State": "CA", "LATITUDE": 32.661179, "TYPE": "Affiliate Job Center", "Street_Address": "4375 Bonita Road"}, {"City": "Fresno", "NAME": "Fresno Workforce Services West / Employment Development Department", "Zip": "93706", "LONGITUDE": -119.79059, "State": "CA", "LATITUDE": 36.708543, "TYPE": "Affiliate Job Center", "Street_Address": "2555 South Elm Avenue"}, {"City": "Oxnard", "NAME": "Oxnard Job & Career Center", "Zip": "93033", "LONGITUDE": -119.194907, "State": "CA", "LATITUDE": 34.195986, "TYPE": "Affiliate Job Center", "Street_Address": "635 S. Ventura Road"}, {"City": "Firebaugh", "NAME": "Workforce Connection", "Zip": "93622", "LONGITUDE": -120.458912, "State": "CA", "LATITUDE": 36.860694, "TYPE": "Affiliate Job Center", "Street_Address": "1511 9th Street"}, {"City": "Santa Cruz", "NAME": "Shoreline Career Center (Workforce Santa Cruz County)", "Zip": "95060", "LONGITUDE": -122.036431, "State": "CA", "LATITUDE": 36.987233, "TYPE": "Affiliate Job Center", "Street_Address": "350 Encinal Street"}, {"City": "Patterson", "NAME": "Stanislaus County Career Resource Center", "Zip": "95363", "LONGITUDE": -121.132397, "State": "CA", "LATITUDE": 37.471531, "TYPE": "Affiliate Job Center", "Street_Address": "66 North El Circulo"}, {"City": "San Jose", "NAME": "Work 2 Future Youth Training Center", "Zip": "95122", "LONGITUDE": -121.8441, "State": "CA", "LATITUDE": 37.316821, "TYPE": "Affiliate Job Center", "Street_Address": "2072 Lucretia Ave"}, {"City": "Oakdale", "NAME": "Stanislaus County Career Resource Center", "Zip": "95361", "LONGITUDE": -120.863056, "State": "CA", "LATITUDE": 37.759783, "TYPE": "Affiliate Job Center", "Street_Address": "1405 West F Street, Suite 1"}, {"City": "Lake Elsinore", "NAME": "Planet Youth", "Zip": "92530", "LONGITUDE": -117.331592, "State": "CA", "LATITUDE": 33.669071, "TYPE": "Affiliate Job Center", "Street_Address": "400 West Graham Ave."}, {"City": "San Francisco", "NAME": "Career Link Center \u2013 Goodwill", "Zip": "94103", "LONGITUDE": -122.417238, "State": "CA", "LATITUDE": 37.774313, "TYPE": "Affiliate Job Center", "Street_Address": "1500 Mission Street"}, {"City": "Buena Park", "NAME": "One-Stop Center Buena Park", "Zip": "90621", "LONGITUDE": -117.998333, "State": "CA", "LATITUDE": 33.869115, "TYPE": "Affiliate Job Center", "Street_Address": "6281 Beach Blvd, Suite 302"}, {"City": "Redding", "NAME": "Employment Development Department Workforce Services", "Zip": "96001", "LONGITUDE": -122.390215, "State": "CA", "LATITUDE": 40.586408, "TYPE": "Affiliate Job Center", "Street_Address": "1325 Pine St."}, {"City": "Pasadena", "NAME": "Women at Work", "Zip": "91107", "LONGITUDE": -118.097957, "State": "CA", "LATITUDE": 34.146217, "TYPE": "Affiliate Job Center", "Street_Address": "2555 East Colorado Blvd., Suite 204"}, {"City": "San Francisco", "NAME": "EDD Civic Center", "Zip": "94102-3117", "LONGITUDE": -122.422361, "State": "CA", "LATITUDE": 37.781675, "TYPE": "Affiliate Job Center", "Street_Address": "801 Turk Street"}, {"City": "Oakhurst", "NAME": "Madera County Workforce Investment Corporation", "Zip": "93644", "LONGITUDE": -119.649918, "State": "CA", "LATITUDE": 37.333254, "TYPE": "Affiliate Job Center", "Street_Address": "40325 Highway 41, P.O. Box 2609 (93644)"}, {"City": "Madera", "NAME": "Madera County Workforce Assistance Center", "Zip": "93638", "LONGITUDE": -120.056025, "State": "CA", "LATITUDE": 36.964403, "TYPE": "Affiliate Job Center", "Street_Address": "441 E. Yosemite Avenue"}, {"City": "Santa Barbara", "NAME": "Workforce Resource Center - Santa Barbara", "Zip": "93101", "LONGITUDE": -119.696461, "State": "CA", "LATITUDE": 34.420104, "TYPE": "Affiliate Job Center", "Street_Address": "130 East Ortega St"}, {"City": "San Francisco", "NAME": "Southeast Work-Force Development Center", "Zip": "94124", "LONGITUDE": -122.394116, "State": "CA", "LATITUDE": 37.736796, "TYPE": "Affiliate Job Center", "Street_Address": "1800 Oakdale Avenue"}, {"City": "Mather", "NAME": "Sacramento Works One Stop Career Center - Mather", "Zip": "95655", "LONGITUDE": -121.294606, "State": "CA", "LATITUDE": 38.56994, "TYPE": "Affiliate Job Center", "Street_Address": "10638 Schirra Ave."}, {"City": "Winterhaven", "NAME": "Winterhaven One-Stop Career Center", "Zip": "92283", "LONGITUDE": -114.598834, "State": "CA", "LATITUDE": 32.75198, "TYPE": "Affiliate Job Center", "Street_Address": "676 Baseline Rd., Building 306"}, {"City": "Visalia", "NAME": "Community Services Employment Training", "Zip": "93291", "LONGITUDE": -119.295109, "State": "CA", "LATITUDE": 36.340356, "TYPE": "Affiliate Job Center", "Street_Address": "312 North West 3rd Avenue"}, {"City": "Pasadena", "NAME": "Foothill Employment & Training Connection", "Zip": "91106", "LONGITUDE": -118.12574, "State": "CA", "LATITUDE": 34.14465, "TYPE": "Affiliate Job Center", "Street_Address": "1207 E. Green Street"}, {"City": "Lakeport", "NAME": "Lake County One-Stop", "Zip": "95453", "LONGITUDE": -122.913986, "State": "CA", "LATITUDE": 39.042211, "TYPE": "Affiliate Job Center", "Street_Address": "55 First Street, Suite F"}, {"City": "Oakland", "NAME": "The English Center One-Stop Jack London Square", "Zip": "94607", "LONGITUDE": -122.275681, "State": "CA", "LATITUDE": 37.794605, "TYPE": "Affiliate Job Center", "Street_Address": "66 Franklin Street, #220"}, {"City": "Oakland", "NAME": "Unity Council Multicultural One-Stop Career Center", "Zip": "94601", "LONGITUDE": -122.222996, "State": "CA", "LATITUDE": 37.783145, "TYPE": "Affiliate Job Center", "Street_Address": "1900 Fruitvale Avenue"}, {"City": "Oakland", "NAME": "Merritt College One Stop Career Center", "Zip": "94619", "LONGITUDE": -122.168106, "State": "CA", "LATITUDE": 37.788803, "TYPE": "Affiliate Job Center", "Street_Address": "12500 Campus Drive, Building R, Room 105"}, {"City": "Stockton", "NAME": "San Joaquin Delta College WorkNet Center", "Zip": "95207", "LONGITUDE": -121.314948, "State": "CA", "LATITUDE": 37.996669, "TYPE": "Affiliate Job Center", "Street_Address": "5151 Pacific Avenue, Room 208; DeRicco Student Services Building"}, {"City": "Lake Isabella", "NAME": "Career Services Center - Lake Isabella", "Zip": "93240", "LONGITUDE": -118.47318, "State": "CA", "LATITUDE": 35.629389, "TYPE": "Affiliate Job Center", "Street_Address": "6401 Lake Isabella Blvd., PO Box 2366"}, {"City": "Porterville", "NAME": "Community Services Employment and Training", "Zip": "93257", "LONGITUDE": -119.041188, "State": "CA", "LATITUDE": 36.080323, "TYPE": "Affiliate Job Center", "Street_Address": "1063 West Henderson Avenue"}, {"City": "Shafter", "NAME": "Shafter Department of Human Services - Career Services Center", "Zip": "93263", "LONGITUDE": -119.278463, "State": "CA", "LATITUDE": 35.506048, "TYPE": "Affiliate Job Center", "Street_Address": "115 N. Central Valley Highway"}, {"City": "King City", "NAME": "One Stop Career Center - King City", "Zip": "93930", "LONGITUDE": -121.125146, "State": "CA", "LATITUDE": 36.213641, "TYPE": "Affiliate Job Center", "Street_Address": "200 Broadway, Suite 62"}, {"City": "El Centro", "NAME": "El Centro West One-Stop Career Center", "Zip": "92243", "LONGITUDE": -115.570578, "State": "CA", "LATITUDE": 32.79292, "TYPE": "Affiliate Job Center", "Street_Address": "1550 West Main Street, P.O. Box 3187 (92243)"}, {"City": "Pasadena", "NAME": "Foothill Employment & Training Connection-Pasadena Comm. Col.  Comm. Ed. Ctr.", "Zip": "91106", "LONGITUDE": -118.12574, "State": "CA", "LATITUDE": 34.14465, "TYPE": "Affiliate Job Center", "Street_Address": ".1207 E. Green Street"}, {"City": "Reedley", "NAME": "Workforce Connection - Reedley", "Zip": "93654", "LONGITUDE": -119.431173, "State": "CA", "LATITUDE": 36.604176, "TYPE": "Affiliate Job Center", "Street_Address": "1680 East Manning"}, {"City": "Ventura", "NAME": "Ventura Job & Career Center", "Zip": "93003", "LONGITUDE": -119.235194, "State": "CA", "LATITUDE": 34.258354, "TYPE": "Affiliate Job Center", "Street_Address": "4651 Telephone Road"}, {"City": "Los Angeles", "NAME": "America`s Job Center", "Zip": "90015", "LONGITUDE": -118.25749, "State": "CA", "LATITUDE": 34.043359, "TYPE": "Affiliate Job Center", "Street_Address": "315 W. 9th Street, Suite 101"}, {"City": "Salinas", "NAME": "Monterey County One Stop Career Center", "Zip": "93905", "LONGITUDE": -121.609499, "State": "CA", "LATITUDE": 36.657805, "TYPE": "Affiliate Job Center", "Street_Address": "730 La Guardia Street"}, {"City": "Ridgecrest", "NAME": "Career Services Center - Ridgecrest", "Zip": "93555", "LONGITUDE": -117.678712, "State": "CA", "LATITUDE": 35.646244, "TYPE": "Affiliate Job Center", "Street_Address": "1400 North Norma Street, Suite 105"}, {"City": "Burbank", "NAME": "Burbank WorkForce Connection", "Zip": "91502", "LONGITUDE": -118.306836, "State": "CA", "LATITUDE": 34.183563, "TYPE": "Affiliate Job Center", "Street_Address": "141 North Glenoaks Blvd."}, {"City": "Oakland", "NAME": "Lao Family Community Development Inc.", "Zip": "94601", "LONGITUDE": -122.236562, "State": "CA", "LATITUDE": 37.782251, "TYPE": "Affiliate Job Center", "Street_Address": "2325 East 12th Street"}, {"City": "Simi Valley", "NAME": "East County Job and Career Center", "Zip": "93065", "LONGITUDE": -118.780167, "State": "CA", "LATITUDE": 34.2829, "TYPE": "Affiliate Job Center", "Street_Address": "980 Enchanted Way, Suite 105"}, {"City": "San Diego", "NAME": "San Diego Metro Career Center", "Zip": "92105", "LONGITUDE": -117.109878, "State": "CA", "LATITUDE": 32.749776, "TYPE": "Affiliate Job Center", "Street_Address": "3910 University Avenue"}, {"City": "Mojave", "NAME": "Career Services Center - Mojave", "Zip": "93501", "LONGITUDE": -117.9946, "State": "CA", "LATITUDE": 35.0177, "TYPE": "Affiliate Job Center", "Street_Address": "2300 Highway 58"}, {"City": "Lamont", "NAME": "Career Services Center - Lamont", "Zip": "93241", "LONGITUDE": -118.912012, "State": "CA", "LATITUDE": 35.256133, "TYPE": "Affiliate Job Center", "Street_Address": "8300 Segrue Road"}, {"City": "San Andreas", "NAME": "The Job Connection Calaveras", "Zip": "95249", "LONGITUDE": -120.671719, "State": "CA", "LATITUDE": 38.189675, "TYPE": "Affiliate Job Center", "Street_Address": "700 Mountain Ranch Road, Suite A"}, {"City": "Los Angeles", "NAME": "LA Urban League West Adams / Baldwin Hills WorkSource Center", "Zip": "90016", "LONGITUDE": -118.37078, "State": "CA", "LATITUDE": 34.026548, "TYPE": "Affiliate Job Center", "Street_Address": "5681 W. Jefferson Blvd."}, {"City": "Monrovia", "NAME": "Monrovia Adult School One Stop Career Center", "Zip": "91016", "LONGITUDE": -117.986214, "State": "CA", "LATITUDE": 34.141903, "TYPE": "Affiliate Job Center", "Street_Address": "920 South Mountain Avenue"}, {"City": "Porterville", "NAME": "Proteus Inc., Porterville One-Stop Service Center", "Zip": "93257", "LONGITUDE": -119.01625, "State": "CA", "LATITUDE": 36.065597, "TYPE": "Affiliate Job Center", "Street_Address": "54 North Main, Suite 10"}, {"City": "Fresno", "NAME": "Workforce Connection - Executive Plaza", "Zip": "93721", "LONGITUDE": -119.7856, "State": "CA", "LATITUDE": 36.7388, "TYPE": "Affiliate Job Center", "Street_Address": "1900 Mariposa Mall, Suite 130"}, {"City": "Fort Bragg", "NAME": "Mendocino Works", "Zip": "95437", "LONGITUDE": -123.80312, "State": "CA", "LATITUDE": 39.444182, "TYPE": "Affiliate Job Center", "Street_Address": "310 East Redwood Avenue"}, {"City": "Los Angeles", "NAME": "JVS West Hollywood Worksource Center", "Zip": "90036", "LONGITUDE": -118.354632, "State": "CA", "LATITUDE": 34.062557, "TYPE": "Affiliate Job Center", "Street_Address": "5757 Wilshire Blvd., Promenade 3"}, {"City": "Marina Del Rey", "NAME": "Employment Development Department West Los Angeles Job Service", "Zip": "90292", "LONGITUDE": -118.437391, "State": "CA", "LATITUDE": 33.984962, "TYPE": "Affiliate Job Center", "Street_Address": "13160 Mindanao Way, Suite 105"}, {"City": "West Covina", "NAME": "San Gabriel Valley Workforce Service", "Zip": "91790", "LONGITUDE": -117.935164, "State": "CA", "LATITUDE": 34.058683, "TYPE": "Affiliate Job Center", "Street_Address": "933 South Glendora Avenue"}, {"City": "Merced", "NAME": "Employment Development Department", "Zip": "95340", "LONGITUDE": -120.493403, "State": "CA", "LATITUDE": 37.306386, "TYPE": "Affiliate Job Center", "Street_Address": "1205 West 18th Street"}, {"City": "Soledad", "NAME": "Employment Development Department", "Zip": "93960", "LONGITUDE": -121.312546, "State": "CA", "LATITUDE": 36.414051, "TYPE": "Affiliate Job Center", "Street_Address": "930 Los Coches Drive, 103"}, {"City": "Anaheim", "NAME": "Employment Development Department- Anaheim Workforce Services", "Zip": "92806", "LONGITUDE": -117.882096, "State": "CA", "LATITUDE": 33.838688, "TYPE": "Affiliate Job Center", "Street_Address": "2450 East Lincoln Avenue, Suite 200"}, {"City": "Norwalk", "NAME": "SELACO WIB Norwalk EDD Career Center", "Zip": "90650", "LONGITUDE": -118.081955, "State": "CA", "LATITUDE": 33.915145, "TYPE": "Affiliate Job Center", "Street_Address": "12715 South Pioneer Blvd."}, {"City": "Capitola", "NAME": "Capitola Career Center (Workforce Santa Cruz County)", "Zip": "95010", "LONGITUDE": -121.966154, "State": "CA", "LATITUDE": 36.979198, "TYPE": "Affiliate Job Center", "Street_Address": "2045 40th Avenue, Suite B"}, {"City": "Auburn", "NAME": "Auburn Connections", "Zip": "95603", "LONGITUDE": -121.088845, "State": "CA", "LATITUDE": 38.929785, "TYPE": "Affiliate Job Center", "Street_Address": "1919 Grass Valley Highway, Suite 100"}, {"City": "Grass Valley", "NAME": "One Stop Business and Career Center", "Zip": "95945", "LONGITUDE": -121.039717, "State": "CA", "LATITUDE": 39.234598, "TYPE": "Affiliate Job Center", "Street_Address": "715 Maltman Drive"}, {"City": "Spring Valley", "NAME": "Spring Valley Library Career Center Info", "Zip": "91977", "LONGITUDE": -117.001771, "State": "CA", "LATITUDE": 32.712348, "TYPE": "Affiliate Job Center", "Street_Address": "836 Kempton Street"}, {"City": "Coalinga", "NAME": "Workforce Connection - Coalinga", "Zip": "93210", "LONGITUDE": -120.357084, "State": "CA", "LATITUDE": 36.147532, "TYPE": "Affiliate Job Center", "Street_Address": "300 Cherry Lane, West Hills College"}, {"City": "Idaho Springs", "NAME": "Clear Creek County Workforce Center", "Zip": "80452", "LONGITUDE": -105.516702, "State": "CO", "LATITUDE": 39.742657, "TYPE": "Affiliate Job Center", "Street_Address": "1531 Colorado Boulevard, P.O. Box 3669"}, {"City": "Cripple Creek", "NAME": "Aspen Mine Center", "Zip": "80813", "LONGITUDE": -105.179066, "State": "CO", "LATITUDE": 38.746508, "TYPE": "Affiliate Job Center", "Street_Address": "166 E Bennent Avenue, P.O. Box 1587"}, {"City": "Rifle", "NAME": "Rifle Workforce Center", "Zip": "81650", "LONGITUDE": -107.788889, "State": "CO", "LATITUDE": 39.531575, "TYPE": "Affiliate Job Center", "Street_Address": "310 West 3rd Street"}, {"City": "Salida", "NAME": "Salida Workforce Center", "Zip": "81201", "LONGITUDE": -105.992993, "State": "CO", "LATITUDE": 38.534251, "TYPE": "Affiliate Job Center", "Street_Address": "141 E 3rd St"}, {"City": "Loveland", "NAME": "The Loveland Office of Larimer County Workforce Center", "Zip": "80537", "LONGITUDE": -105.071563, "State": "CO", "LATITUDE": 40.395382, "TYPE": "Affiliate Job Center", "Street_Address": "418 East 4th Street"}, {"City": "Ft Lupton", "NAME": "Employment Services of Weld County", "Zip": "80621", "LONGITUDE": -104.779401, "State": "CO", "LATITUDE": 40.087323, "TYPE": "Affiliate Job Center", "Street_Address": "2950 9th Street"}, {"City": "San Luis", "NAME": "San Luis Satellite Workforce Center", "Zip": "81152", "LONGITUDE": -105.423122, "State": "CO", "LATITUDE": 37.197286, "TYPE": "Affiliate Job Center", "Street_Address": "303 Vega St, Rocky Mountain SER Head Start"}, {"City": "Leadville", "NAME": "Leadville Workforce Center", "Zip": "80461", "LONGITUDE": -106.292306, "State": "CO", "LATITUDE": 39.248636, "TYPE": "Affiliate Job Center", "Street_Address": "115 West 6th Street, P.O. Box 1263"}, {"City": "Aurora", "NAME": "Arapahoe/Douglas Altura Plaza Workforce Center", "Zip": "80014", "LONGITUDE": -104.808861, "State": "CO", "LATITUDE": 39.738732, "TYPE": "Affiliate Job Center", "Street_Address": "15400 E.14th Place"}, {"City": "Denver", "NAME": "Denver Workforce Center at Denver International Airport", "Zip": "80249", "LONGITUDE": -104.675177, "State": "CO", "LATITUDE": 39.847131, "TYPE": "Affiliate Job Center", "Street_Address": "8500 Pena Blvd., 5th Level, Main Terminal, Northwest Side"}, {"City": "Castle Rock", "NAME": "Arapahoe/Douglas Works! Castle Rock Workforce Center", "Zip": "80104", "LONGITUDE": -104.86049, "State": "CO", "LATITUDE": 39.368206, "TYPE": "Affiliate Job Center", "Street_Address": "100 South Wilcox Street, Suite #198"}, {"City": "Monument", "NAME": "Pikes Peak Workforce Center", "Zip": "80132", "LONGITUDE": -104.871315, "State": "CO", "LATITUDE": 39.092136, "TYPE": "Affiliate Job Center", "Street_Address": "235 Jefferson St., 2nd Floor"}, {"City": "Gunnison", "NAME": "Colorado Workforce Center at Gunnison", "Zip": "81230", "LONGITUDE": -106.926744, "State": "CO", "LATITUDE": 38.546528, "TYPE": "Affiliate Job Center", "Street_Address": "109 East Georgia Avenue"}, {"City": "New Britain", "NAME": "CTWorks", "Zip": "06053", "LONGITUDE": -72.786819, "State": "CT", "LATITUDE": 41.670858, "TYPE": "Affiliate Job Center", "Street_Address": "270 Lafayette Street"}, {"City": "New Britain", "NAME": "New Britain One-Stop Center", "Zip": "06053", "LONGITUDE": -72.786458, "State": "CT", "LATITUDE": 41.670872, "TYPE": "Affiliate Job Center", "Street_Address": "260 Lafayette Street"}, {"City": "Torrington", "NAME": "Torrington  CT Works Center", "Zip": "06790", "LONGITUDE": -73.121605, "State": "CT", "LATITUDE": 41.814484, "TYPE": "Affiliate Job Center", "Street_Address": "685 Main Street, (K-Mart Plaza)"}, {"City": "Manchester", "NAME": "CTWorks Manchester", "Zip": "06040", "LONGITUDE": -72.520686, "State": "CT", "LATITUDE": 41.769949, "TYPE": "Affiliate Job Center", "Street_Address": "893 Main St."}, {"City": "Washington", "NAME": "United States Veterans Assistance Center (USVAC) Veterans Affairs Regional Office", "Zip": "20421", "LONGITUDE": -77.040006, "State": "DC", "LATITUDE": 38.901248, "TYPE": "Affiliate Job Center", "Street_Address": "1722  I Street, N.W."}, {"City": "Washington", "NAME": "Office of Youth Programs/Passport to Work Program", "Zip": "20019", "LONGITUDE": -76.947892, "State": "DC", "LATITUDE": 38.896514, "TYPE": "Affiliate Job Center", "Street_Address": "4058 Minnesota Ave., NE, 2nd Floor"}, {"City": "Washington", "NAME": "Business Resource Center", "Zip": "20019", "LONGITUDE": -76.947892, "State": "DC", "LATITUDE": 38.896514, "TYPE": "Affiliate Job Center", "Street_Address": "4058 Minnesota Ave. N.E."}, {"City": "Miami", "NAME": "City of South Miami", "Zip": "33143", "LONGITUDE": -80.28769, "State": "FL", "LATITUDE": 25.708035, "TYPE": "Affiliate Job Center", "Street_Address": "5825 SW 68th Street, Bay C"}, {"City": "Miami,", "NAME": "Adults Mankind Organization, Inc.", "Zip": "33165", "LONGITUDE": -80.367953, "State": "FL", "LATITUDE": 25.753804, "TYPE": "Affiliate Job Center", "Street_Address": "1619 SW 107th Avenue"}, {"City": "St. Petersburg", "NAME": "JOB Corps Center", "Zip": "33701", "LONGITUDE": -82.662963, "State": "FL", "LATITUDE": 27.765399, "TYPE": "Affiliate Job Center", "Street_Address": "500 22nd Street South"}, {"City": "Century", "NAME": "Escarosa Career Center-Century", "Zip": "32535", "LONGITUDE": -87.259988, "State": "FL", "LATITUDE": 30.978212, "TYPE": "Affiliate Job Center", "Street_Address": "8120 North Century Boulevard"}, {"City": "Macclenny", "NAME": "WorkSource Career Services", "Zip": "32063", "LONGITUDE": -82.122797, "State": "FL", "LATITUDE": 30.267194, "TYPE": "Affiliate Job Center", "Street_Address": "1184 South 6th Street"}, {"City": "Tarpon Springs", "NAME": "Worknet Pinellas Tarpon Springs One-Stop Career Center", "Zip": "34689", "LONGITUDE": -82.7577, "State": "FL", "LATITUDE": 28.1479, "TYPE": "Affiliate Job Center", "Street_Address": "St. Petersburg College Campus, 682 East Klosterman Road"}, {"City": "Clearwater", "NAME": "Gulf- to- Bay One-Stop Career Center", "Zip": "33765", "LONGITUDE": -82.741586, "State": "FL", "LATITUDE": 27.960647, "TYPE": "Affiliate Job Center", "Street_Address": "2312 Gulf-to-Bay Boulevard"}, {"City": "Live Oak", "NAME": "Workforce-Live Oak", "Zip": "32064", "LONGITUDE": -82.981692, "State": "FL", "LATITUDE": 30.301931, "TYPE": "Affiliate Job Center", "Street_Address": "815 North Ohio Avenue"}, {"City": "Ft. Lauderdale", "NAME": "Business Service HUB", "Zip": "33309", "LONGITUDE": -80.150734, "State": "FL", "LATITUDE": 26.205257, "TYPE": "Affiliate Job Center", "Street_Address": "6301 Northwest 5th Way, Suite 3000"}, {"City": "Clearwater", "NAME": "Clearwater", "Zip": "33755", "LONGITUDE": -82.782333, "State": "FL", "LATITUDE": 27.965619, "TYPE": "Affiliate Job Center", "Street_Address": "1315 Cleveland Street"}, {"City": "Arcadia", "NAME": "Heartland Workforce, DeSoto One-Stop  Career Center", "Zip": "34266", "LONGITUDE": -81.839393, "State": "FL", "LATITUDE": 27.22381, "TYPE": "Affiliate Job Center", "Street_Address": "2160 Northeast Roan Avenue"}, {"City": "Vero Beach", "NAME": "Workforce Solutions-Indian River County (Mobile Unit)", "Zip": "32960", "LONGITUDE": -80.4009, "State": "FL", "LATITUDE": 27.6369, "TYPE": "Affiliate Job Center", "Street_Address": "Corner of 26th Street and 18th Avenue"}, {"City": "Miami", "NAME": "South Florida Workforce Access Points", "Zip": "33169", "LONGITUDE": -80.2131, "State": "FL", "LATITUDE": 25.9418, "TYPE": "Affiliate Job Center", "Street_Address": "Trinity Church, 17801 Northwest 2nd Avenue"}, {"City": "Orlando", "NAME": "JobVantage", "Zip": "32809", "LONGITUDE": -81.399796, "State": "FL", "LATITUDE": 28.447444, "TYPE": "Affiliate Job Center", "Street_Address": "1563 Florida Mall Avenue"}, {"City": "Sanford", "NAME": "JobVantage-Sanford", "Zip": "32773", "LONGITUDE": -81.278741, "State": "FL", "LATITUDE": 28.773391, "TYPE": "Affiliate Job Center", "Street_Address": "2884 South Orlando Drive"}, {"City": "Okeechobee", "NAME": "Okeechobee ReEMPLOYment Services Center", "Zip": "34974", "LONGITUDE": -80.831242, "State": "FL", "LATITUDE": 27.243094, "TYPE": "Affiliate Job Center", "Street_Address": "209 SW Park Street"}, {"City": "Port St. Lucie", "NAME": "Treasure Coast ReEMPLOYment Services Center", "Zip": "34986", "LONGITUDE": -80.405715, "State": "FL", "LATITUDE": 27.321751, "TYPE": "Affiliate Job Center", "Street_Address": "582 NW University Boulevard, Suite 200"}, {"City": "Cape Coral", "NAME": "Southwest Florida Works", "Zip": "33990", "LONGITUDE": -81.959506, "State": "FL", "LATITUDE": 26.634481, "TYPE": "Affiliate Job Center", "Street_Address": "1020 Cultural Park Boulevard,, Building # 2"}, {"City": "Orlando", "NAME": "West Orange County One-Stop Career Center", "Zip": "32818", "LONGITUDE": -81.467536, "State": "FL", "LATITUDE": 28.550789, "TYPE": "Affiliate Job Center", "Street_Address": "609 North Powers Drive, Suite 340"}, {"City": "LaBelle", "NAME": "Southwest Florida Works", "Zip": "33935", "LONGITUDE": -81.422599, "State": "FL", "LATITUDE": 26.747971, "TYPE": "Affiliate Job Center", "Street_Address": "921 Anvil Way"}, {"City": "Port St. Lucie", "NAME": "Business Service Center", "Zip": "34986", "LONGITUDE": -80.405901, "State": "FL", "LATITUDE": 27.321721, "TYPE": "Affiliate Job Center", "Street_Address": "584 Northwest University Boulevard, Suite 200"}, {"City": "Ruskin", "NAME": "Ruskin One-Stop Career Center", "Zip": "33570", "LONGITUDE": -82.432627, "State": "FL", "LATITUDE": 27.705861, "TYPE": "Affiliate Job Center", "Street_Address": "201 14th Avenue SE"}, {"City": "Miami", "NAME": "Adults Mankind Organization, Inc.", "Zip": "33165", "LONGITUDE": -80.367953, "State": "FL", "LATITUDE": 25.753804, "TYPE": "Affiliate Job Center", "Street_Address": "1619 SW 107th Avenue"}, {"City": "Miami,", "NAME": "Florida Education Institute, Inc.", "Zip": "33144", "LONGITUDE": -80.290644, "State": "FL", "LATITUDE": 25.763383, "TYPE": "Affiliate Job Center", "Street_Address": "5818 SW 8th Street"}, {"City": "Miami,", "NAME": "Haitian Neighborhood Center Sant La, Inc", "Zip": "33137", "LONGITUDE": -80.187588, "State": "FL", "LATITUDE": 25.820935, "TYPE": "Affiliate Job Center", "Street_Address": "5000 Biscayne Boulevard, Suite 110"}, {"City": "Miami", "NAME": "Transition, Inc.", "Zip": "33136", "LONGITUDE": -80.200041, "State": "FL", "LATITUDE": 25.789862, "TYPE": "Affiliate Job Center", "Street_Address": "1550 Northwest 3rd Avenue"}, {"City": "Opa Locka", "NAME": "Opa Locka Resource Center", "Zip": "33056", "LONGITUDE": -80.251311, "State": "FL", "LATITUDE": 25.902218, "TYPE": "Affiliate Job Center", "Street_Address": "780 Fisherman Street, Suite 110"}, {"City": "Cedartown", "NAME": "Cedartown Career Center, Georgia Department of Labor", "Zip": "30125", "LONGITUDE": -85.222679, "State": "GA", "LATITUDE": 34.042665, "TYPE": "Affiliate Job Center", "Street_Address": "262 North Park Blvd"}, {"City": "Thomson", "NAME": "Thomson Career Center, Georgia Department of Labor", "Zip": "30824", "LONGITUDE": -82.503596, "State": "GA", "LATITUDE": 33.468375, "TYPE": "Affiliate Job Center", "Street_Address": "232 Main Street"}, {"City": "Douglas", "NAME": "Douglas Career Center, Georgia Department of Labor", "Zip": "31533", "LONGITUDE": -82.8123, "State": "GA", "LATITUDE": 31.5467, "TYPE": "Affiliate Job Center", "Street_Address": "70 Lockwood Drive"}, {"City": "Sylvester", "NAME": "Sylvester Career Center, Georgia Department of Labor", "Zip": "31791", "LONGITUDE": -83.833548, "State": "GA", "LATITUDE": 31.530548, "TYPE": "Affiliate Job Center", "Street_Address": "204 East Franklin Street"}, {"City": "Toccoa", "NAME": "Toccoa Career Center, Georgia Department of Labor", "Zip": "30577", "LONGITUDE": -83.3314, "State": "GA", "LATITUDE": 34.5785, "TYPE": "Affiliate Job Center", "Street_Address": "37 Foreacre Street, P.O. Box 520"}, {"City": "Norcross", "NAME": "Gwinnett Career Center, Georgia Department of Labor", "Zip": "30071", "LONGITUDE": -84.186645, "State": "GA", "LATITUDE": 33.936949, "TYPE": "Affiliate Job Center", "Street_Address": "2211 Beaver Ruin Road, Suite 160"}, {"City": "Marietta", "NAME": "Cobb-Cherokee Career Center, Georgia Department of Labor", "Zip": "30066-3303", "LONGITUDE": -84.564601, "State": "GA", "LATITUDE": 34.027857, "TYPE": "Affiliate Job Center", "Street_Address": "465 Big Shanty Rd."}, {"City": "Eastman", "NAME": "Eastman Career Center, Georgia Department of Labor", "Zip": "31023-1610", "LONGITUDE": -83.17757, "State": "GA", "LATITUDE": 32.198812, "TYPE": "Affiliate Job Center", "Street_Address": "5016 Park Way"}, {"City": "Cornelia", "NAME": "Habersham Area Career Center, Georgia Department of Labor", "Zip": "30531", "LONGITUDE": -83.528929, "State": "GA", "LATITUDE": 34.511145, "TYPE": "Affiliate Job Center", "Street_Address": "215 Hodges Street, Suite 205"}, {"City": "LaFayette", "NAME": "LaFayette Career Center, Georgia Department of Labor", "Zip": "30728", "LONGITUDE": -85.283316, "State": "GA", "LATITUDE": 34.705358, "TYPE": "Affiliate Job Center", "Street_Address": "200 West Villanow Street"}, {"City": "Atlanta", "NAME": "South Metro Career Center, Georgia Department of Labor", "Zip": "30311", "LONGITUDE": -84.473706, "State": "GA", "LATITUDE": 33.753738, "TYPE": "Affiliate Job Center", "Street_Address": "2636-14 Martin Luther King Jr. Drive"}, {"City": "Atlanta", "NAME": "North Metro Career Center, Georgia Department of Labor", "Zip": "30329", "LONGITUDE": -84.310274, "State": "GA", "LATITUDE": 33.815413, "TYPE": "Affiliate Job Center", "Street_Address": "2943 N. Druid Hills Rd."}, {"City": "Covington", "NAME": "Covington Career Center, Georgia Department of Labor", "Zip": "30014", "LONGITUDE": -83.839062, "State": "GA", "LATITUDE": 33.603447, "TYPE": "Affiliate Job Center", "Street_Address": "7249 Industrial Blvd North East"}, {"City": "Decatur", "NAME": "Dekalb County Career Center, Georgia Department of Labor", "Zip": "30032", "LONGITUDE": -84.24122, "State": "GA", "LATITUDE": 33.759407, "TYPE": "Affiliate Job Center", "Street_Address": "3879 Covington Hwy."}, {"City": "Tifton", "NAME": "Tifton Career Center, Georgia Department of Labor", "Zip": "31794", "LONGITUDE": -83.503, "State": "GA", "LATITUDE": 31.4734, "TYPE": "Affiliate Job Center", "Street_Address": "310 South Tift Ave."}, {"City": "Vidalia", "NAME": "Vidalia Career Center, Georgia Department of Labor", "Zip": "30474", "LONGITUDE": -82.411, "State": "GA", "LATITUDE": 32.2139, "TYPE": "Affiliate Job Center", "Street_Address": "206 Queen Street - Carter Center Plaza, Suite 16"}, {"City": "Douglasville", "NAME": "Career Resource Center - Douglas County", "Zip": "30134", "LONGITUDE": -84.750952, "State": "GA", "LATITUDE": 33.74666, "TYPE": "Affiliate Job Center", "Street_Address": "8595 Club Drive"}, {"City": "Sandy Springs", "NAME": "North Fulton Career Center", "Zip": "30350", "LONGITUDE": -84.364209, "State": "GA", "LATITUDE": 33.964397, "TYPE": "Affiliate Job Center", "Street_Address": "7741 Roswell Road, Room 205"}, {"City": "Jonesboro", "NAME": "Clayton Career Center, Georgia Department of Labor", "Zip": "30236", "LONGITUDE": -84.313399, "State": "GA", "LATITUDE": 33.557758, "TYPE": "Affiliate Job Center", "Street_Address": "2450 Mt. Zion Parkway, Suite 100, Southwood 75 Office Park"}, {"City": "Honolulu", "NAME": "Oahu Work Links-Honolulu Office", "Zip": "96813", "LONGITUDE": -157.860773, "State": "HI", "LATITUDE": 21.303719, "TYPE": "Affiliate Job Center", "Street_Address": "830 Punchbowl Street, Room 112"}, {"City": "Kaunakakai", "NAME": "One Stop Career Resource Center Molokai", "Zip": "96748", "LONGITUDE": -157.022551, "State": "HI", "LATITUDE": 21.091384, "TYPE": "Affiliate Job Center", "Street_Address": "55 Makaena Street, Room 4, Kaunakakai Civic Center"}, {"City": "Waipahu", "NAME": "Oahu Work Links-Waipahu Office", "Zip": "96797", "LONGITUDE": -158.003153, "State": "HI", "LATITUDE": 21.385524, "TYPE": "Affiliate Job Center", "Street_Address": "94-275 Mokuola Street, Room 300"}, {"City": "Decorah", "NAME": "IowaWORKS - Decorah", "Zip": "52101", "LONGITUDE": -91.787079, "State": "IA", "LATITUDE": 43.302257, "TYPE": "Affiliate Job Center", "Street_Address": "312 Winnebago Street, Suite A"}, {"City": "Webster City", "NAME": "Iowa Works-Webster City", "Zip": "50595", "LONGITUDE": -93.815981, "State": "IA", "LATITUDE": 42.464919, "TYPE": "Affiliate Job Center", "Street_Address": "403 Elm Street"}, {"City": "Iowa City", "NAME": "Iowa Workforce Development Center - Iowa City", "Zip": "52240-6036", "LONGITUDE": -91.505899, "State": "IA", "LATITUDE": 41.642036, "TYPE": "Affiliate Job Center", "Street_Address": "1700 South 1st Avenue, Suite 11B"}, {"City": "Fort Madison", "NAME": "Iowa Workforce Development Center-Fort Madison", "Zip": "52627", "LONGITUDE": -91.314132, "State": "IA", "LATITUDE": 40.630094, "TYPE": "Affiliate Job Center", "Street_Address": "933 Avenue H"}, {"City": "Boise", "NAME": "Idaho Department of Labor - Boise", "Zip": "83735-0030", "LONGITUDE": -116.196739, "State": "ID", "LATITUDE": 43.612136, "TYPE": "Affiliate Job Center", "Street_Address": "219 West Main Street"}, {"City": "Soda Springs", "NAME": "Idaho Department of Labor - Soda Springs", "Zip": "83276", "LONGITUDE": -111.597936, "State": "ID", "LATITUDE": 42.659075, "TYPE": "Affiliate Job Center", "Street_Address": "95 East Hooper Avenue, #20"}, {"City": "Bellevue", "NAME": "Idaho Department of Labor - Blaine County", "Zip": "83313", "LONGITUDE": -114.265354, "State": "ID", "LATITUDE": 43.473932, "TYPE": "Affiliate Job Center", "Street_Address": "733 North Main Street, Suite C"}, {"City": "Salem", "NAME": "Kaskaskia College Salem Education Center", "Zip": "62881", "LONGITUDE": -88.964472, "State": "IL", "LATITUDE": 38.623626, "TYPE": "Affiliate Job Center", "Street_Address": "1475 West Whitaker"}, {"City": "Robinson", "NAME": "Illinois WorkNet Center - Robinson", "Zip": "62454", "LONGITUDE": -87.739441, "State": "IL", "LATITUDE": 39.003991, "TYPE": "Affiliate Job Center", "Street_Address": "301 South Cross Street, Suite 283, P.O. Box  838"}, {"City": "Lombard", "NAME": "IDES - Lombard", "Zip": "60148-3724", "LONGITUDE": -87.993186, "State": "IL", "LATITUDE": 41.870472, "TYPE": "Affiliate Job Center", "Street_Address": "837 South Westmore Meyers Road"}, {"City": "Marion", "NAME": "Illinois Department of Employment Security", "Zip": "62959", "LONGITUDE": -89.004252, "State": "IL", "LATITUDE": 37.745929, "TYPE": "Affiliate Job Center", "Street_Address": "8195 Express Drive"}, {"City": "Olney", "NAME": "Illinois WorkNet Center - Olney", "Zip": "62450", "LONGITUDE": -88.083345, "State": "IL", "LATITUDE": 38.731181, "TYPE": "Affiliate Job Center", "Street_Address": "218 East Main Street"}, {"City": "Peoria", "NAME": "Career Center at Manual Talent Development HS.....", "Zip": "61605", "LONGITUDE": -89.632752, "State": "IL", "LATITUDE": 40.680346, "TYPE": "Affiliate Job Center", "Street_Address": "811 South Griswold"}, {"City": "Toulon", "NAME": "Workforce Network Stark County Career-Satellite Office", "Zip": "61483", "LONGITUDE": -89.864592, "State": "IL", "LATITUDE": 41.093728, "TYPE": "Affiliate Job Center", "Street_Address": "115 South Franklin"}, {"City": "Glen Carbon", "NAME": "IETC Glen Carbon", "Zip": "62034", "LONGITUDE": -89.951639, "State": "IL", "LATITUDE": 38.775014, "TYPE": "Affiliate Job Center", "Street_Address": "50 Kriege Farm Road"}, {"City": "Henry", "NAME": "Workforce Network Marshall County - Satellite Office", "Zip": "61537", "LONGITUDE": -89.353742, "State": "IL", "LATITUDE": 41.110116, "TYPE": "Affiliate Job Center", "Street_Address": "509 Front Street"}, {"City": "Eureka", "NAME": "Workforce Network Woodford County - Satellite Office", "Zip": "61530", "LONGITUDE": -89.272764, "State": "IL", "LATITUDE": 40.72025, "TYPE": "Affiliate Job Center", "Street_Address": "202 South Main Street"}, {"City": "Chicago", "NAME": "IDES 528 South Financial Place", "Zip": "60607", "LONGITUDE": -87.633132, "State": "IL", "LATITUDE": 41.875212, "TYPE": "Affiliate Job Center", "Street_Address": "528 South Financial Place"}, {"City": "Belleville", "NAME": "Southwestern Illinois WorkNet Center", "Zip": "62221", "LONGITUDE": -89.926078, "State": "IL", "LATITUDE": 38.51944, "TYPE": "Affiliate Job Center", "Street_Address": "2500 Carlyle Avenue, Information Science Building, Room 1140; Southwestern Illinois College"}, {"City": "Kewanee", "NAME": "Partners in Job Training and Placement", "Zip": "61443", "LONGITUDE": -89.920411, "State": "IL", "LATITUDE": 41.245703, "TYPE": "Affiliate Job Center", "Street_Address": "404 East 3rd Street, Community Education Center"}, {"City": "Pekin", "NAME": "Career Link - Pekin Office", "Zip": "61555-0067", "LONGITUDE": -89.608254, "State": "IL", "LATITUDE": 40.550064, "TYPE": "Affiliate Job Center", "Street_Address": "2956 Court St., P.O. Box 67"}, {"City": "Havana", "NAME": "Career Link - Mason County Office.", "Zip": "62644", "LONGITUDE": -90.062353, "State": "IL", "LATITUDE": 40.300144, "TYPE": "Affiliate Job Center", "Street_Address": "200 West Main"}, {"City": "Nashville", "NAME": "Washington County Employment & Training/Southwestern Illinois WorkNet", "Zip": "62263", "LONGITUDE": -89.385275, "State": "IL", "LATITUDE": 38.340818, "TYPE": "Affiliate Job Center", "Street_Address": "455 S. Washington, Room 32; P.O. Box 31"}, {"City": "Ullin", "NAME": "Shawnee Community College/Career Services", "Zip": "62992", "LONGITUDE": -89.03494, "State": "IL", "LATITUDE": 37.27198, "TYPE": "Affiliate Job Center", "Street_Address": "8364 Shawnee College Road"}, {"City": "Naperville", "NAME": "Community Career Center", "Zip": "60563", "LONGITUDE": -88.206336, "State": "IL", "LATITUDE": 41.799153, "TYPE": "Affiliate Job Center", "Street_Address": "1815 West Diehl Road, Suite 100"}, {"City": "Bolingbrook", "NAME": "IDES--Bolingbrook", "Zip": "60440", "LONGITUDE": -88.075488, "State": "IL", "LATITUDE": 41.690278, "TYPE": "Affiliate Job Center", "Street_Address": "321 Quadrangle Drive"}, {"City": "Carlyle", "NAME": "Clinton County Employment & Training Office", "Zip": "62231", "LONGITUDE": -89.36836, "State": "IL", "LATITUDE": 38.611244, "TYPE": "Affiliate Job Center", "Street_Address": "851 Fairfax Street"}, {"City": "Waterloo", "NAME": "Southwestern Illinois Worknet", "Zip": "62298", "LONGITUDE": -90.150326, "State": "IL", "LATITUDE": 38.336107, "TYPE": "Affiliate Job Center", "Street_Address": "100 South Main Street, Room 19"}, {"City": "Chicago", "NAME": "IDES East 71st Street", "Zip": "60619", "LONGITUDE": -87.58824, "State": "IL", "LATITUDE": 41.765879, "TYPE": "Affiliate Job Center", "Street_Address": "1515 East 71st Street"}, {"City": "Morris", "NAME": "Grundy County Workforce Services", "Zip": "60450", "LONGITUDE": -88.421891, "State": "IL", "LATITUDE": 41.376978, "TYPE": "Affiliate Job Center", "Street_Address": "1715 North Division, Suite 104"}, {"City": "Joliet", "NAME": "IDES North Chicago Street", "Zip": "60432", "LONGITUDE": -88.081588, "State": "IL", "LATITUDE": 41.528834, "TYPE": "Affiliate Job Center", "Street_Address": "250 North Chicago Street"}, {"City": "Burbank", "NAME": "IDES Burbank", "Zip": "60459", "LONGITUDE": -87.761175, "State": "IL", "LATITUDE": 41.755796, "TYPE": "Affiliate Job Center", "Street_Address": "5608 West 75th Place"}, {"City": "Petersburg", "NAME": "Worknet Menard County", "Zip": "62675", "LONGITUDE": -89.849659, "State": "IL", "LATITUDE": 40.011072, "TYPE": "Affiliate Job Center", "Street_Address": "102 South 7th Street, P.O. Box 464,  Menard County Courthouse"}, {"City": "Chester", "NAME": "Randolph County Employment & Training Office", "Zip": "62233", "LONGITUDE": -89.83152, "State": "IL", "LATITUDE": 37.908681, "TYPE": "Affiliate Job Center", "Street_Address": "1 Taylor Street, Suite 104"}, {"City": "Lawrenceville", "NAME": "Illinois Worknet Center - Lawrenceville", "Zip": "62439", "LONGITUDE": -87.678216, "State": "IL", "LATITUDE": 38.729379, "TYPE": "Affiliate Job Center", "Street_Address": "700 E State Street, (basement of Lawrenceville City Hall); P.O. Box 96"}, {"City": "Vandalia", "NAME": "Illinois WorkNet Center - Vandalia", "Zip": "62471", "LONGITUDE": -89.096377, "State": "IL", "LATITUDE": 38.960654, "TYPE": "Affiliate Job Center", "Street_Address": "517 West Gallatin"}, {"City": "Yorkville", "NAME": "Illinois WorkNet Center", "Zip": "60560", "LONGITUDE": -88.4729, "State": "IL", "LATITUDE": 41.6585, "TYPE": "Affiliate Job Center", "Street_Address": "811 West John Street"}, {"City": "Chicago", "NAME": "IDES West Lawrence Avenue", "Zip": "60625", "LONGITUDE": -87.690304, "State": "IL", "LATITUDE": 41.968694, "TYPE": "Affiliate Job Center", "Street_Address": "2444 West Lawrence Avenue"}, {"City": "Chicago", "NAME": "IDES West Diversey", "Zip": "60639", "LONGITUDE": -87.749845, "State": "IL", "LATITUDE": 41.93145, "TYPE": "Affiliate Job Center", "Street_Address": "4931 West Diversey"}, {"City": "Chicago", "NAME": "IDES Halsted Office", "Zip": "60643", "LONGITUDE": -87.642877, "State": "IL", "LATITUDE": 41.677772, "TYPE": "Affiliate Job Center", "Street_Address": "837 West 119th Street"}, {"City": "Wabash", "NAME": "WorkOne Northeast Indiana - Wabash County", "Zip": "46992", "LONGITUDE": -85.834443, "State": "IN", "LATITUDE": 40.811545, "TYPE": "Affiliate Job Center", "Street_Address": "1143 North Cass Street"}, {"City": "Indianapolis", "NAME": "WorkOne North", "Zip": "46268", "LONGITUDE": -86.221764, "State": "IN", "LATITUDE": 39.918757, "TYPE": "Affiliate Job Center", "Street_Address": "9002 North Purdue Road, Suite 200"}, {"City": "Connersville", "NAME": "Fayette County WorkOne Center", "Zip": "47331", "LONGITUDE": -85.136425, "State": "IN", "LATITUDE": 39.642905, "TYPE": "Affiliate Job Center", "Street_Address": "710 Eastern Avenue"}, {"City": "Rockport", "NAME": "WorkOne Southwest - Spencer County", "Zip": "47635", "LONGITUDE": -87.051479, "State": "IN", "LATITUDE": 37.880329, "TYPE": "Affiliate Job Center", "Street_Address": "319 South 5th Street, Suite 10"}, {"City": "Rushville", "NAME": "Rush County WorkOne Center", "Zip": "46173", "LONGITUDE": -85.446359, "State": "IN", "LATITUDE": 39.607603, "TYPE": "Affiliate Job Center", "Street_Address": "103 North Morgan Street"}, {"City": "Frankfort", "NAME": "Frankfort Express", "Zip": "46041", "LONGITUDE": -86.510483, "State": "IN", "LATITUDE": 40.27178, "TYPE": "Affiliate Job Center", "Street_Address": "1111 South Jackson Street"}, {"City": "Williamsport", "NAME": "Warren County Learning Center", "Zip": "47993", "LONGITUDE": -87.294112, "State": "IN", "LATITUDE": 40.288179, "TYPE": "Affiliate Job Center", "Street_Address": "26 East 2nd Street"}, {"City": "Brazil", "NAME": "Brazil WorkOne Express", "Zip": "47834", "LONGITUDE": -87.137588, "State": "IN", "LATITUDE": 39.520766, "TYPE": "Affiliate Job Center", "Street_Address": "921 W National Avenue"}, {"City": "Rochester", "NAME": "Rochester WorkOne Center (Fulton County)", "Zip": "46975", "LONGITUDE": -86.21599, "State": "IN", "LATITUDE": 41.066161, "TYPE": "Affiliate Job Center", "Street_Address": "927 Main Street"}, {"City": "Covington", "NAME": "Covington WorkOne Express - Community Action Program, Inc. of Western Indiana", "Zip": "47932-0188", "LONGITUDE": -87.396367, "State": "IN", "LATITUDE": 40.137704, "TYPE": "Affiliate Job Center", "Street_Address": "418 Washington Street, P.O. Box 188"}, {"City": "Winamac", "NAME": "WorkOne Express of Pulaski County", "Zip": "46996", "LONGITUDE": -86.604221, "State": "IN", "LATITUDE": 41.051174, "TYPE": "Affiliate Job Center", "Street_Address": "123 N. Market Street, Suite 2"}, {"City": "Warsaw", "NAME": "Kosciusko County WorkOne Center", "Zip": "46580", "LONGITUDE": -85.856588, "State": "IN", "LATITUDE": 41.231254, "TYPE": "Affiliate Job Center", "Street_Address": "715 South Buffalo Street"}, {"City": "Monticello", "NAME": "Monticello WorkOne Express  - Community Action Program, Inc. of Western Indiana", "Zip": "47960", "LONGITUDE": -86.770067, "State": "IN", "LATITUDE": 40.765249, "TYPE": "Affiliate Job Center", "Street_Address": "1500  North Main Street, Suite E"}, {"City": "Scottsburg", "NAME": "Scottsburg WorkOne Express", "Zip": "47170", "LONGITUDE": -85.798972, "State": "IN", "LATITUDE": 38.700695, "TYPE": "Affiliate Job Center", "Street_Address": "1092 West Community Way"}, {"City": "Paoli", "NAME": "WorkOne Express Orange County", "Zip": "47454", "LONGITUDE": -86.472484, "State": "IN", "LATITUDE": 38.571659, "TYPE": "Affiliate Job Center", "Street_Address": "1075 North Sandy Hook Road"}, {"City": "Plymouth", "NAME": "Plymouth Express WorkOne Center (Marshall County)", "Zip": "46563", "LONGITUDE": -86.348936, "State": "IN", "LATITUDE": 41.359663, "TYPE": "Affiliate Job Center", "Street_Address": "2878 Miller Drive"}, {"City": "Portland", "NAME": "Jay County WorkOne", "Zip": "47371", "LONGITUDE": -84.977897, "State": "IN", "LATITUDE": 40.433233, "TYPE": "Affiliate Job Center", "Street_Address": "107 South Meridian Street"}, {"City": "Lebanon", "NAME": "WorkOne Express Boone County", "Zip": "46052", "LONGITUDE": -86.471964, "State": "IN", "LATITUDE": 40.072421, "TYPE": "Affiliate Job Center", "Street_Address": "125 Lakeshore Drive"}, {"City": "Logansport", "NAME": "Logansport WorkOne Express", "Zip": "46947", "LONGITUDE": -86.354224, "State": "IN", "LATITUDE": 40.737204, "TYPE": "Affiliate Job Center", "Street_Address": "1 Ivy Tech Way, Suite B"}, {"City": "Greencastle", "NAME": "Greencastle WorkOne Express", "Zip": "46135", "LONGITUDE": -86.840938, "State": "IN", "LATITUDE": 39.640431, "TYPE": "Affiliate Job Center", "Street_Address": "1007 Mill Pond Lane, Suite A"}, {"City": "Clinton", "NAME": "Clinton WorkOne Express", "Zip": "47842", "LONGITUDE": -87.398189, "State": "IN", "LATITUDE": 39.658158, "TYPE": "Affiliate Job Center", "Street_Address": "306 South Main Street"}, {"City": "Kendallville", "NAME": "WorkOne Northeast Indiana - Noble County", "Zip": "46755", "LONGITUDE": -85.246296, "State": "IN", "LATITUDE": 41.448955, "TYPE": "Affiliate Job Center", "Street_Address": "524 Fairview Blvd"}, {"City": "Jasper", "NAME": "Jasper WorkOne Express", "Zip": "47546", "LONGITUDE": -86.940332, "State": "IN", "LATITUDE": 38.391937, "TYPE": "Affiliate Job Center", "Street_Address": "703 West 6th Street"}, {"City": "Corydon", "NAME": "Corydon WorkOne Express", "Zip": "47112", "LONGITUDE": -86.1322, "State": "IN", "LATITUDE": 38.2133, "TYPE": "Affiliate Job Center", "Street_Address": "101 West Highway 62"}, {"City": "Crawfordsville", "NAME": "Crawfordsville WorkOne Express/Community Action Program, Inc. of Western Indiana", "Zip": "47933", "LONGITUDE": -86.899734, "State": "IN", "LATITUDE": 40.038235, "TYPE": "Affiliate Job Center", "Street_Address": "201 East Jefferson Street, Suite 200"}, {"City": "Franklin", "NAME": "Franklin WorkOne", "Zip": "46131-1665", "LONGITUDE": -86.017186, "State": "IN", "LATITUDE": 39.48167, "TYPE": "Affiliate Job Center", "Street_Address": "97 N. Lovers Lane"}, {"City": "Greenfield", "NAME": "Greenfield WorkOne Express", "Zip": "46140", "LONGITUDE": -85.767275, "State": "IN", "LATITUDE": 39.77533, "TYPE": "Affiliate Job Center", "Street_Address": "836 South State Street"}, {"City": "Hartford City", "NAME": "Blackford WorkOne Express", "Zip": "47348", "LONGITUDE": -85.368538, "State": "IN", "LATITUDE": 40.461433, "TYPE": "Affiliate Job Center", "Street_Address": "1301 North High Street, Suite B"}, {"City": "Greensburg", "NAME": "WorkOne Southeast", "Zip": "47240", "LONGITUDE": -85.4845, "State": "IN", "LATITUDE": 39.355224, "TYPE": "Affiliate Job Center", "Street_Address": "1821 North Broadway Street"}, {"City": "New Castle", "NAME": "Henry County WorkOne", "Zip": "47362-4206", "LONGITUDE": -85.3675, "State": "IN", "LATITUDE": 39.9199, "TYPE": "Affiliate Job Center", "Street_Address": "3011 South 14th Street"}, {"City": "Winchester", "NAME": "Winchester WorkOne Express", "Zip": "47394", "LONGITUDE": -84.973374, "State": "IN", "LATITUDE": 40.17012, "TYPE": "Affiliate Job Center", "Street_Address": "325 S. Oak Street, Suite 301"}, {"City": "Washington", "NAME": "Washington WorkOne Express Daviess County", "Zip": "47501", "LONGITUDE": -87.17309, "State": "IN", "LATITUDE": 38.656898, "TYPE": "Affiliate Job Center", "Street_Address": "219 East Main Street"}, {"City": "Princeton", "NAME": "WorkOne Southwest", "Zip": "47670", "LONGITUDE": -87.566237, "State": "IN", "LATITUDE": 38.355353, "TYPE": "Affiliate Job Center", "Street_Address": "112 North Prince Street"}, {"City": "Loogootee", "NAME": "WorkOne Express Martin County", "Zip": "47553", "LONGITUDE": -86.913471, "State": "IN", "LATITUDE": 38.673653, "TYPE": "Affiliate Job Center", "Street_Address": "123 Cooper Street"}, {"City": "Bluffton", "NAME": "WorkOne Northeast Indiana - Wells County", "Zip": "46714", "LONGITUDE": -85.16288, "State": "IN", "LATITUDE": 40.742343, "TYPE": "Affiliate Job Center", "Street_Address": "3156 East State Road 124"}, {"City": "Angola", "NAME": "WorkOne Northeast Indiana - Steuben County", "Zip": "46703", "LONGITUDE": -84.99916, "State": "IN", "LATITUDE": 41.632859, "TYPE": "Affiliate Job Center", "Street_Address": "317 South Wayne Street, Suite 1D"}, {"City": "Columbia City", "NAME": "WorkOne Northeast Indiana - Whitley County", "Zip": "46725", "LONGITUDE": -85.493919, "State": "IN", "LATITUDE": 41.170494, "TYPE": "Affiliate Job Center", "Street_Address": "480 West Plaza Drive"}, {"City": "Decatur", "NAME": "WorkOne Northeast Indiana - Adams County", "Zip": "46733", "LONGITUDE": -84.922775, "State": "IN", "LATITUDE": 40.82989, "TYPE": "Affiliate Job Center", "Street_Address": "126 South First Street"}, {"City": "Huntington", "NAME": "WorkOne Northeast Indiana - Huntington County", "Zip": "46750", "LONGITUDE": -85.521663, "State": "IN", "LATITUDE": 40.888134, "TYPE": "Affiliate Job Center", "Street_Address": "1314 Flaxmill Road"}, {"City": "Knox", "NAME": "WorkOne Express - Starke County", "Zip": "46534", "LONGITUDE": -86.623772, "State": "IN", "LATITUDE": 41.297523, "TYPE": "Affiliate Job Center", "Street_Address": "53 West Lake Street"}, {"City": "Morocco", "NAME": "Newton County WorkOne Express", "Zip": "47963", "LONGITUDE": -87.437194, "State": "IN", "LATITUDE": 40.9401, "TYPE": "Affiliate Job Center", "Street_Address": "4117 South 240 West, Suite 400"}, {"City": "Rensselaer", "NAME": "Rensselaer WorkOne Express", "Zip": "47978", "LONGITUDE": -87.151946, "State": "IN", "LATITUDE": 40.936186, "TYPE": "Affiliate Job Center", "Street_Address": "116 North Van Rensselaer"}, {"City": "Jeffersonville", "NAME": "Jeffersonville WorkOne Express", "Zip": "47130", "LONGITUDE": -85.722665, "State": "IN", "LATITUDE": 38.288334, "TYPE": "Affiliate Job Center", "Street_Address": "1613 East 8th Street"}, {"City": "Fishers", "NAME": "WorkOne Express Fishers", "Zip": "46037", "LONGITUDE": -86.013815, "State": "IN", "LATITUDE": 39.936047, "TYPE": "Affiliate Job Center", "Street_Address": "10204 Lantern Road"}, {"City": "English", "NAME": "English WorkOne Express", "Zip": "47118", "LONGITUDE": -86.445364, "State": "IN", "LATITUDE": 38.344207, "TYPE": "Affiliate Job Center", "Street_Address": "304 Indiana Avenue, P.O. Box 38"}, {"City": "Tell City", "NAME": "Workone Southwest - Perry County", "Zip": "47586", "LONGITUDE": -86.769733, "State": "IN", "LATITUDE": 37.950861, "TYPE": "Affiliate Job Center", "Street_Address": "700 Main Street, P.O. Box 413"}, {"City": "Rockville", "NAME": "Rockville WorkOne Express", "Zip": "47872", "LONGITUDE": -87.23618, "State": "IN", "LATITUDE": 39.772407, "TYPE": "Affiliate Job Center", "Street_Address": "517 North Lincoln Road"}, {"City": "Salem", "NAME": "Salem WorkOne Express", "Zip": "47167", "LONGITUDE": -86.107905, "State": "IN", "LATITUDE": 38.618586, "TYPE": "Affiliate Job Center", "Street_Address": "1707 North Shelby Street, Suite 112"}, {"City": "Sullivan", "NAME": "Sullivan WorkOne Express Western Indiana", "Zip": "47882", "LONGITUDE": -87.407559, "State": "IN", "LATITUDE": 39.094342, "TYPE": "Affiliate Job Center", "Street_Address": "35 West Jackson Street"}, {"City": "North Vernon", "NAME": "WorkOne Southeast", "Zip": "47265", "LONGITUDE": -85.642199, "State": "IN", "LATITUDE": 39.007047, "TYPE": "Affiliate Job Center", "Street_Address": "1200 West O & M Avenue, P.O. Box 963"}, {"City": "Nashville", "NAME": "WorkOne Express Brown County", "Zip": "47448", "LONGITUDE": -86.242265, "State": "IN", "LATITUDE": 39.205898, "TYPE": "Affiliate Job Center", "Street_Address": "246 East Main Street, P.O. Box 699  (Mailing)"}, {"City": "Seymour", "NAME": "Seymour WorkOne Express", "Zip": "47274", "LONGITUDE": -85.9006, "State": "IN", "LATITUDE": 38.9626, "TYPE": "Affiliate Job Center", "Street_Address": "323 Dupont Drive, PO Box 1003"}, {"City": "Spencer", "NAME": "WorkOne Express Owen County", "Zip": "47460", "LONGITUDE": -86.760074, "State": "IN", "LATITUDE": 39.287107, "TYPE": "Affiliate Job Center", "Street_Address": "205 East Morgan, Suite B"}, {"City": "LaGrange", "NAME": "WorkOne Northeast - LaGrange County", "Zip": "46761", "LONGITUDE": -85.418018, "State": "IN", "LATITUDE": 41.650056, "TYPE": "Affiliate Job Center", "Street_Address": "848  North Detroit Street"}, {"City": "Peru", "NAME": "Peru WorkOne Express", "Zip": "46970", "LONGITUDE": -86.04818, "State": "IN", "LATITUDE": 40.761891, "TYPE": "Affiliate Job Center", "Street_Address": "685 E. Main Street"}, {"City": "Leavenworth", "NAME": "Leavenworth County Workforce Center", "Zip": "66048", "LONGITUDE": -94.909817, "State": "KS", "LATITUDE": 39.28864, "TYPE": "Affiliate Job Center", "Street_Address": "515 Limit Street, Suite 200"}, {"City": "Winfield", "NAME": "Cowley Workforce Center", "Zip": "67156", "LONGITUDE": -96.996946, "State": "KS", "LATITUDE": 37.23729, "TYPE": "Affiliate Job Center", "Street_Address": "108 East 12th Street"}, {"City": "Irvine", "NAME": "Estill Development Alliance", "Zip": "40336", "LONGITUDE": -83.97283, "State": "KY", "LATITUDE": 37.700575, "TYPE": "Affiliate Job Center", "Street_Address": "177 Broadway, P. O. Box 421"}, {"City": "Flemingsburg", "NAME": "Fleming County Adult Education", "Zip": "41041", "LONGITUDE": -83.733154, "State": "KY", "LATITUDE": 38.422798, "TYPE": "Affiliate Job Center", "Street_Address": "100 Court Square"}, {"City": "Calhoun", "NAME": "McLean County Career Center", "Zip": "42327", "LONGITUDE": -87.2234, "State": "KY", "LATITUDE": 37.5724, "TYPE": "Affiliate Job Center", "Street_Address": "200 North Highway 81 North"}, {"City": "Barbourville", "NAME": "KCEOC Community Action Partnership, Inc.", "Zip": "40906", "LONGITUDE": -83.888194, "State": "KY", "LATITUDE": 36.866463, "TYPE": "Affiliate Job Center", "Street_Address": "464 Court Square"}, {"City": "Beattyville", "NAME": "Middle Kentucky Community Action Partnership, Inc.", "Zip": "41311", "LONGITUDE": -83.696194, "State": "KY", "LATITUDE": 37.641535, "TYPE": "Affiliate Job Center", "Street_Address": "1970 Old Hwy 11"}, {"City": "Jackson", "NAME": "Middle Kentucky Community Action Partnership, Inc.", "Zip": "41339", "LONGITUDE": -83.383497, "State": "KY", "LATITUDE": 37.553401, "TYPE": "Affiliate Job Center", "Street_Address": "500 Brown Street"}, {"City": "Salyersville", "NAME": "Salyersville-Magoffin County Learning Center", "Zip": "41465", "LONGITUDE": -83.067762, "State": "KY", "LATITUDE": 37.747185, "TYPE": "Affiliate Job Center", "Street_Address": "109 Gardner Trail, P.O. Box 109"}, {"City": "Pineville", "NAME": "Southeast Kentucky Community and Technical College-Pineville Campus", "Zip": "40977", "LONGITUDE": -83.6984, "State": "KY", "LATITUDE": 36.7459, "TYPE": "Affiliate Job Center", "Street_Address": "10350 US Highway 25 E. South"}, {"City": "Beattyville", "NAME": "Experience Works", "Zip": "41311", "LONGITUDE": -83.703174, "State": "KY", "LATITUDE": 37.580862, "TYPE": "Affiliate Job Center", "Street_Address": "1053 Broadway, P.O. Box 667"}, {"City": "Hindman", "NAME": "Hindman-LKLP Community Action Council", "Zip": "41822", "LONGITUDE": -82.9715, "State": "KY", "LATITUDE": 37.3247, "TYPE": "Affiliate Job Center", "Street_Address": "125 West Main Street, P.O. Box 21"}, {"City": "Hindman", "NAME": "Hindman-Hazard Community & Tech. College-Knott Co. Branch", "Zip": "41822", "LONGITUDE": -82.9616, "State": "KY", "LATITUDE": 37.3214, "TYPE": "Affiliate Job Center", "Street_Address": "238 Highway 160"}, {"City": "Whitesburg", "NAME": "Whitesburg-LKLP Community Action Council, Inc.", "Zip": "41858", "LONGITUDE": -82.826429, "State": "KY", "LATITUDE": 37.118218, "TYPE": "Affiliate Job Center", "Street_Address": "2 Main Street"}, {"City": "Prestonsburg", "NAME": "Prestonsburg-Office of Vocational Rehabilitation", "Zip": "41653", "LONGITUDE": -82.7746, "State": "KY", "LATITUDE": 37.6673, "TYPE": "Affiliate Job Center", "Street_Address": "207 West Court Street"}, {"City": "Beattyville", "NAME": "Lee County Adult Learning Center", "Zip": "41311", "LONGITUDE": -83.709276, "State": "KY", "LATITUDE": 37.578703, "TYPE": "Affiliate Job Center", "Street_Address": "242 Lee Avenue, P.O. Box 130"}, {"City": "Harlan", "NAME": "Harlan-Office of Vocational Rehabilitation", "Zip": "40831", "LONGITUDE": -83.322801, "State": "KY", "LATITUDE": 36.846554, "TYPE": "Affiliate Job Center", "Street_Address": "124 South Main Street"}, {"City": "West Liberty", "NAME": "West Liberty-Office of Vocational Rehabilitation", "Zip": "41472", "LONGITUDE": -83.2251, "State": "KY", "LATITUDE": 37.934, "TYPE": "Affiliate Job Center", "Street_Address": "563 B Main Street, P.O. Box 84"}, {"City": "Prestonsburg", "NAME": "Prestonsburg-Office for the Blind", "Zip": "41653", "LONGITUDE": -82.734393, "State": "KY", "LATITUDE": 37.666628, "TYPE": "Affiliate Job Center", "Street_Address": "16 Bingham Street"}, {"City": "Olive Hill", "NAME": "West Carter Adult Education Center", "Zip": "41164", "LONGITUDE": -83.149386, "State": "KY", "LATITUDE": 38.311029, "TYPE": "Affiliate Job Center", "Street_Address": "333 Warrior Drive"}, {"City": "Pikeville", "NAME": "Pikeville-Office  of Vocational Rehabilitation", "Zip": "41501", "LONGITUDE": -82.515518, "State": "KY", "LATITUDE": 37.482107, "TYPE": "Affiliate Job Center", "Street_Address": "126 Trivette Drive, Suite 302"}, {"City": "Inez", "NAME": "Inez-Martin County Adult Education and Family Learning", "Zip": "41224", "LONGITUDE": -82.5373, "State": "KY", "LATITUDE": 37.8665, "TYPE": "Affiliate Job Center", "Street_Address": "387 East Main Street"}, {"City": "Hazard", "NAME": "Appalachian Lifelong Learning Center", "Zip": "41701", "LONGITUDE": -83.183854, "State": "KY", "LATITUDE": 37.265792, "TYPE": "Affiliate Job Center", "Street_Address": "101 Vo-Tech Drive"}, {"City": "Campton", "NAME": "Campton-Wolfe County Learning Center", "Zip": "41301", "LONGITUDE": -83.5026, "State": "KY", "LATITUDE": 37.7323, "TYPE": "Affiliate Job Center", "Street_Address": "114 Old Campton, Elementary School Road"}, {"City": "Booneville", "NAME": "Owsley County Adult Education and Family Literacy", "Zip": "41314", "LONGITUDE": -83.666973, "State": "KY", "LATITUDE": 37.474819, "TYPE": "Affiliate Job Center", "Street_Address": "1 Sheppard Lane, P.O. Box 828"}, {"City": "Pikeville", "NAME": "Kentucky Career Center", "Zip": "41501", "LONGITUDE": -82.519963, "State": "KY", "LATITUDE": 37.477701, "TYPE": "Affiliate Job Center", "Street_Address": "138 College St"}, {"City": "Hebron", "NAME": "Kentucky Career Center - NKY/Greater Cincinnati Int`l Airport office", "Zip": "41048", "LONGITUDE": -84.65347, "State": "KY", "LATITUDE": 39.0553, "TYPE": "Affiliate Job Center", "Street_Address": "2939 Terminal Drive, Airport Adminstration Office"}, {"City": "Marion", "NAME": "Crittenden County Ed Tech Center", "Zip": "42064", "LONGITUDE": -88.0944, "State": "KY", "LATITUDE": 37.3356, "TYPE": "Affiliate Job Center", "Street_Address": "PO Box 381, 200 Industrial Drive"}, {"City": "Louisville", "NAME": "Office of Employment and Training", "Zip": "40219", "LONGITUDE": -85.6822, "State": "KY", "LATITUDE": 38.141, "TYPE": "Affiliate Job Center", "Street_Address": "6201 G Preston Highway"}, {"City": "Louisville", "NAME": "Jefferson Community & Technical College - Metropolitan College/CREW Career Center", "Zip": "40202", "LONGITUDE": -85.755232, "State": "KY", "LATITUDE": 38.245798, "TYPE": "Affiliate Job Center", "Street_Address": "200 West Broadway, 9th Floor"}, {"City": "Sandy Hook", "NAME": "Elliott County Public Library", "Zip": "41171", "LONGITUDE": -83.126675, "State": "KY", "LATITUDE": 38.086029, "TYPE": "Affiliate Job Center", "Street_Address": "400 Main Street, P.O. Box 750"}, {"City": "Harlan", "NAME": "Harlan Co. CAA JobSight Center Southeast KCTCS-Harlan Campus", "Zip": "40831", "LONGITUDE": -83.314386, "State": "KY", "LATITUDE": 36.810101, "TYPE": "Affiliate Job Center", "Street_Address": "164 Ball Park Road, Building 1, Room 115"}, {"City": "Pineville", "NAME": "Southeast Community College", "Zip": "40977", "LONGITUDE": -83.693292, "State": "KY", "LATITUDE": 36.763831, "TYPE": "Affiliate Job Center", "Street_Address": "129 Pine Street, P.O. Box 159"}, {"City": "Whitesburg", "NAME": "Whitesburg-Southeast Kentucky Community and Technical College-Whitesburg Campus", "Zip": "41858", "LONGITUDE": -82.827833, "State": "KY", "LATITUDE": 37.120861, "TYPE": "Affiliate Job Center", "Street_Address": "2 Long Ave"}, {"City": "Campton", "NAME": "Middle Kentucky Community Action Partnership, Inc.", "Zip": "41301", "LONGITUDE": -83.547417, "State": "KY", "LATITUDE": 37.734957, "TYPE": "Affiliate Job Center", "Street_Address": "10 Court Street, P.O. Box 805"}, {"City": "Whitley City", "NAME": "McCreary OET/WIA Local Office", "Zip": "42653", "LONGITUDE": -84.475, "State": "KY", "LATITUDE": 36.7684, "TYPE": "Affiliate Job Center", "Street_Address": "250 College Street, KCTCS"}, {"City": "Ashland", "NAME": "Ashland Technical College", "Zip": "41102", "LONGITUDE": -82.652484, "State": "KY", "LATITUDE": 38.469156, "TYPE": "Affiliate Job Center", "Street_Address": "1140 College Drive"}, {"City": "Benton", "NAME": "Marshall County Adult Learning Center", "Zip": "42025", "LONGITUDE": -88.34406, "State": "KY", "LATITUDE": 36.892912, "TYPE": "Affiliate Job Center", "Street_Address": "1308 US HWY 641, 86 High School Road (Mailing Address)"}, {"City": "Albany", "NAME": "Clinton County Community Center", "Zip": "42602", "LONGITUDE": -85.134087, "State": "KY", "LATITUDE": 36.690885, "TYPE": "Affiliate Job Center", "Street_Address": "110 North Spring Street, Suite D"}, {"City": "Middlesboro", "NAME": "Middlesboro Learning Center", "Zip": "40965", "LONGITUDE": -83.711085, "State": "KY", "LATITUDE": 36.607616, "TYPE": "Affiliate Job Center", "Street_Address": "118 1/2 N. 18th Street"}, {"City": "Dry Ridge", "NAME": "Grant County Career Advancement Center - Kentucky Career Center/Brighton Center", "Zip": "41035", "LONGITUDE": -84.633222, "State": "KY", "LATITUDE": 38.673678, "TYPE": "Affiliate Job Center", "Street_Address": "2020 Taft Highway"}, {"City": "Louisville", "NAME": "Kentuck Manufactering Career Center", "Zip": "40214", "LONGITUDE": -85.759349, "State": "KY", "LATITUDE": 38.169947, "TYPE": "Affiliate Job Center", "Street_Address": "160 Rochester Drive, Building W Airport industrial Center"}, {"City": "Morganfield", "NAME": "Union County Career Center", "Zip": "42437", "LONGITUDE": -87.950342, "State": "KY", "LATITUDE": 37.61569, "TYPE": "Affiliate Job Center", "Street_Address": "4500 U.S. Highway 60 West"}, {"City": "London", "NAME": "London - OET/WIA Local Office", "Zip": "40741", "LONGITUDE": -84.061369, "State": "KY", "LATITUDE": 37.117309, "TYPE": "Affiliate Job Center", "Street_Address": "100 University Drive, KCTCS - London Campus"}, {"City": "Murray", "NAME": "Murray Career Discovery Center", "Zip": "42071", "LONGITUDE": -88.302875, "State": "KY", "LATITUDE": 36.609734, "TYPE": "Affiliate Job Center", "Street_Address": "208 South 5th Street"}, {"City": "Hawesville", "NAME": "Hancock County Career Center", "Zip": "42348", "LONGITUDE": -86.782312, "State": "KY", "LATITUDE": 37.912653, "TYPE": "Affiliate Job Center", "Street_Address": "1605 US Highway 60 West"}, {"City": "Henderson", "NAME": "Henderson Office of Employment & Training", "Zip": "42419", "LONGITUDE": -87.593018, "State": "KY", "LATITUDE": 37.84155, "TYPE": "Affiliate Job Center", "Street_Address": "212 North Water Street, P.O. Box 1269"}, {"City": "Hartford", "NAME": "Ohio County Career Center", "Zip": "42347", "LONGITUDE": -86.906767, "State": "KY", "LATITUDE": 37.45115, "TYPE": "Affiliate Job Center", "Street_Address": "130 East Washington Street"}, {"City": "Middlesboro", "NAME": "Middlesboro Office of Employment and Training", "Zip": "40965", "LONGITUDE": -83.713948, "State": "KY", "LATITUDE": 36.616277, "TYPE": "Affiliate Job Center", "Street_Address": "725 North 19th Street, P.O. Drawer 578"}, {"City": "Harlan", "NAME": "Harlan - Office of Employment and Training", "Zip": "40831", "LONGITUDE": -83.323658, "State": "KY", "LATITUDE": 36.84666, "TYPE": "Affiliate Job Center", "Street_Address": "124 S Cumberland"}, {"City": "Richmond", "NAME": "Central Kentucky Job Service Center", "Zip": "40475", "LONGITUDE": -84.320767, "State": "KY", "LATITUDE": 37.772417, "TYPE": "Affiliate Job Center", "Street_Address": "595 South Keeneland"}, {"City": "Springfield", "NAME": "Kentucky Career Center Springfield", "Zip": "40069", "LONGITUDE": -85.2219, "State": "KY", "LATITUDE": 37.6855, "TYPE": "Affiliate Job Center", "Street_Address": "111 N Cross Main Street"}, {"City": "Falmouth", "NAME": "Kentucky Career Center - Pendleton Co.", "Zip": "41040", "LONGITUDE": -84.332653, "State": "KY", "LATITUDE": 38.674689, "TYPE": "Affiliate Job Center", "Street_Address": "500 Chapel Street, Mailing address 2525 Highway 27 North"}, {"City": "Greensburg", "NAME": "Green County Adult Learning Center", "Zip": "42743", "LONGITUDE": -85.496357, "State": "KY", "LATITUDE": 37.261791, "TYPE": "Affiliate Job Center", "Street_Address": "416 Scottsville Street"}, {"City": "Beverly", "NAME": "Red Bird Mission - Beverly", "Zip": "40913", "LONGITUDE": -83.5785, "State": "KY", "LATITUDE": 36.9252, "TYPE": "Affiliate Job Center", "Street_Address": "70 Queendale Center"}, {"City": "Grayson", "NAME": "East Carter Adult Education Center", "Zip": "41143", "LONGITUDE": -82.940085, "State": "KY", "LATITUDE": 38.330531, "TYPE": "Affiliate Job Center", "Street_Address": "520 East Main Street, PO Box 295"}, {"City": "Jackson", "NAME": "Breathitt Co. Adult Education Center", "Zip": "41339", "LONGITUDE": -83.37077, "State": "KY", "LATITUDE": 37.557328, "TYPE": "Affiliate Job Center", "Street_Address": "1127 Main Street"}, {"City": "Sandy Hook", "NAME": "Sandy Hook-Elliott Co. Adult Ed and GED Career Center", "Zip": "41171", "LONGITUDE": -83.1002, "State": "KY", "LATITUDE": 38.1255, "TYPE": "Affiliate Job Center", "Street_Address": "101 South Kentucky 7, P.O. Box 324"}, {"City": "Cecilia", "NAME": "Lakewood Family Resource Center", "Zip": "42724", "LONGITUDE": -85.9812, "State": "KY", "LATITUDE": 37.6554, "TYPE": "Affiliate Job Center", "Street_Address": "265 Learning Place Lane"}, {"City": "Prestonsburg", "NAME": "Prestonsburg - Office of Employment and Training", "Zip": "41653", "LONGITUDE": -82.775879, "State": "KY", "LATITUDE": 37.671853, "TYPE": "Affiliate Job Center", "Street_Address": "686 North Lake Drive"}, {"City": "Beattyville", "NAME": "Experience Works Inc.", "Zip": "41311", "LONGITUDE": -83.703403, "State": "KY", "LATITUDE": 37.580619, "TYPE": "Affiliate Job Center", "Street_Address": "1029 Broadway, PO Box A"}, {"City": "Hyden", "NAME": "Hyden-LKLP Community Action Council", "Zip": "41749", "LONGITUDE": -83.375332, "State": "KY", "LATITUDE": 37.163783, "TYPE": "Affiliate Job Center", "Street_Address": "121 Maple Street, P.O. Box 899"}, {"City": "Mt. Sterling", "NAME": "Mt. Sterling  Office of Employment & Training", "Zip": "40353", "LONGITUDE": -83.941471, "State": "KY", "LATITUDE": 38.055231, "TYPE": "Affiliate Job Center", "Street_Address": "108 Locust Street, 2nd Floor"}, {"City": "Madisonville", "NAME": "Madisonville Office of Employment & Training", "Zip": "42431", "LONGITUDE": -87.497634, "State": "KY", "LATITUDE": 37.328954, "TYPE": "Affiliate Job Center", "Street_Address": "56 Federal Street"}, {"City": "Hindman", "NAME": "Knott County Adult Learning Center", "Zip": "41822", "LONGITUDE": -82.9616, "State": "KY", "LATITUDE": 37.3214, "TYPE": "Affiliate Job Center", "Street_Address": "238 Hwy. 160 South, Room 311"}, {"City": "Barbourville", "NAME": "Knox County Adult Education", "Zip": "40906", "LONGITUDE": -83.891489, "State": "KY", "LATITUDE": 36.867087, "TYPE": "Affiliate Job Center", "Street_Address": "133 Wall Street"}, {"City": "Whitesburg", "NAME": "Whitesburg-Office of Vocational Rehabilitation", "Zip": "41858", "LONGITUDE": -82.795974, "State": "KY", "LATITUDE": 37.117096, "TYPE": "Affiliate Job Center", "Street_Address": "415 Highway 2034, Suite C"}, {"City": "Louisa", "NAME": "Louisa-Lawrence County Adult Learning Center", "Zip": "41230", "LONGITUDE": -82.601842, "State": "KY", "LATITUDE": 38.113465, "TYPE": "Affiliate Job Center", "Street_Address": "235 East Powhatan Street"}, {"City": "Pikeville", "NAME": "Pikeville-Office of Employment and Training", "Zip": "41501", "LONGITUDE": -82.519963, "State": "KY", "LATITUDE": 37.477701, "TYPE": "Affiliate Job Center", "Street_Address": "138 College Street"}, {"City": "Cadiz", "NAME": "Trigg County Adult Education Center", "Zip": "42211", "LONGITUDE": -87.798948, "State": "KY", "LATITUDE": 36.867222, "TYPE": "Affiliate Job Center", "Street_Address": "202 Main Street"}, {"City": "Carrollton", "NAME": "Kentucky Career Center - Carroll Co.", "Zip": "41008", "LONGITUDE": -85.16973, "State": "KY", "LATITUDE": 38.681739, "TYPE": "Affiliate Job Center", "Street_Address": "1209 Highland Avenue, Suite E"}, {"City": "Grayson", "NAME": "Fivco Area Development District", "Zip": "41143", "LONGITUDE": -82.8442, "State": "KY", "LATITUDE": 38.2191, "TYPE": "Affiliate Job Center", "Street_Address": "32 Fivco Court"}, {"City": "Brooksville", "NAME": "Bracken County Public Library", "Zip": "41004", "LONGITUDE": -84.069188, "State": "KY", "LATITUDE": 38.687298, "TYPE": "Affiliate Job Center", "Street_Address": "310 West Miami Street, PO Box 305"}, {"City": "Liberty", "NAME": "Casey County - SCC Center", "Zip": "42539", "LONGITUDE": -84.8993, "State": "KY", "LATITUDE": 37.3408, "TYPE": "Affiliate Job Center", "Street_Address": "3609 North US 127"}, {"City": "Columbia", "NAME": "Office of Employment and Training -Columbia", "Zip": "42728", "LONGITUDE": -85.300791, "State": "KY", "LATITUDE": 37.113274, "TYPE": "Affiliate Job Center", "Street_Address": "969 Campbellsville Road"}, {"City": "Central City", "NAME": "Career Advancement Center", "Zip": "42330", "LONGITUDE": -87.148697, "State": "KY", "LATITUDE": 37.237654, "TYPE": "Affiliate Job Center", "Street_Address": "50 Career Way"}, {"City": "Mount Olivet", "NAME": "Roberston County Library", "Zip": "41064", "LONGITUDE": -84.059, "State": "KY", "LATITUDE": 38.5136, "TYPE": "Affiliate Job Center", "Street_Address": "207 North Main Street, P.O. Box 282"}, {"City": "Flemingsburg", "NAME": "Fleming County Public Library", "Zip": "41041", "LONGITUDE": -83.7604, "State": "KY", "LATITUDE": 38.4509, "TYPE": "Affiliate Job Center", "Street_Address": "202 Bypass Blvd."}, {"City": "Vanceburg", "NAME": "Lewis County Adult Education", "Zip": "41179", "LONGITUDE": -83.319713, "State": "KY", "LATITUDE": 38.603938, "TYPE": "Affiliate Job Center", "Street_Address": "112 2nd Street, Suite 300"}, {"City": "Greenup", "NAME": "Greenup County Adult and Family Learning Center", "Zip": "41144", "LONGITUDE": -82.837973, "State": "KY", "LATITUDE": 38.57878, "TYPE": "Affiliate Job Center", "Street_Address": "226 West Main Street"}, {"City": "McKee", "NAME": "Jackson County Continuing Education", "Zip": "40447", "LONGITUDE": -83.988729, "State": "KY", "LATITUDE": 37.430584, "TYPE": "Affiliate Job Center", "Street_Address": "654 Education Mountain Drive, P.O. Box 1390"}, {"City": "Monticello", "NAME": "Kentucky Career Center Monticello", "Zip": "42633", "LONGITUDE": -84.837101, "State": "KY", "LATITUDE": 36.846933, "TYPE": "Affiliate Job Center", "Street_Address": "1500 North Main, Suite 168"}, {"City": "Carlisle", "NAME": "Nicholas County Schools Family Resource Center", "Zip": "40311", "LONGITUDE": -84.037706, "State": "KY", "LATITUDE": 38.316789, "TYPE": "Affiliate Job Center", "Street_Address": "105 School Drive"}, {"City": "Prestonsburg", "NAME": "Carl D. Perkins Job Corps Center", "Zip": "41653-1501", "LONGITUDE": -82.829236, "State": "KY", "LATITUDE": 37.678681, "TYPE": "Affiliate Job Center", "Street_Address": "478 Meadows Branch"}, {"City": "Frenchburg", "NAME": "Frenchburg Job Corps Center", "Zip": "40322", "LONGITUDE": -83.6354, "State": "KY", "LATITUDE": 37.8713, "TYPE": "Affiliate Job Center", "Street_Address": "6969 Tarr Ridge Road"}, {"City": "Allen", "NAME": "Big Sandy Area Community Action Program", "Zip": "41601", "LONGITUDE": -82.721734, "State": "KY", "LATITUDE": 37.615571, "TYPE": "Affiliate Job Center", "Street_Address": "60 Court Street"}, {"City": "Salyersville", "NAME": "Salyersville-Big Sandy Area Community Action Program", "Zip": "41465", "LONGITUDE": -83.068322, "State": "KY", "LATITUDE": 37.7506, "TYPE": "Affiliate Job Center", "Street_Address": "131 South Church Street, P.O. Box 346"}, {"City": "Inez", "NAME": "Inez-Big Sandy Area Community Action Program", "Zip": "41224", "LONGITUDE": -82.5373, "State": "KY", "LATITUDE": 37.8665, "TYPE": "Affiliate Job Center", "Street_Address": "387 East Main Street, Suite 203"}, {"City": "Pikeville", "NAME": "Pikeville-Big Sandy Area Community Action Program", "Zip": "41501", "LONGITUDE": -82.491002, "State": "KY", "LATITUDE": 37.495084, "TYPE": "Affiliate Job Center", "Street_Address": "478 Town Mountain Road"}, {"City": "Sandy Hook", "NAME": "Northeast Community Action Agency", "Zip": "41171", "LONGITUDE": -83.126675, "State": "KY", "LATITUDE": 38.086029, "TYPE": "Affiliate Job Center", "Street_Address": "400 Main Street, Rocky J. Adkins Public Library. P.O. Box 775"}, {"City": "Grayson", "NAME": "Northeast Kentucky Community Action Council", "Zip": "41143", "LONGITUDE": -82.956513, "State": "KY", "LATITUDE": 38.314096, "TYPE": "Affiliate Job Center", "Street_Address": "1103 South State Highway 7"}, {"City": "Olive Hill", "NAME": "Northeast Kentucky Community Action Agency Inc.", "Zip": "41164", "LONGITUDE": -83.186082, "State": "KY", "LATITUDE": 38.299842, "TYPE": "Affiliate Job Center", "Street_Address": "539 Hitchens Avenue"}, {"City": "Harlan", "NAME": "Harlan County Community Action Agency", "Zip": "40831", "LONGITUDE": -83.327439, "State": "KY", "LATITUDE": 36.842687, "TYPE": "Affiliate Job Center", "Street_Address": "319 Camden Street, P.O. Box 1556"}, {"City": "Booneville", "NAME": "Middle Kentucky Community Action Partnership", "Zip": "41314", "LONGITUDE": -83.4887, "State": "KY", "LATITUDE": 37.3611, "TYPE": "Affiliate Job Center", "Street_Address": "1 Shepherd Lane, Room 104"}, {"City": "Prestonsburg", "NAME": "Big Sandy Community and Technical College- Adult Education", "Zip": "41653", "LONGITUDE": -82.781244, "State": "KY", "LATITUDE": 37.686147, "TYPE": "Affiliate Job Center", "Street_Address": "One Bert T Combs Drive"}, {"City": "Hyden", "NAME": "Hyden-Hazard Community and Technical College-Leslie County Center", "Zip": "41749", "LONGITUDE": -83.375232, "State": "KY", "LATITUDE": 37.163894, "TYPE": "Affiliate Job Center", "Street_Address": "108 Maple Street"}, {"City": "Middlesboro", "NAME": "Southeast Kentucky Community and Technical College-Middlesboro Campus", "Zip": "40965", "LONGITUDE": -83.728475, "State": "KY", "LATITUDE": 36.612505, "TYPE": "Affiliate Job Center", "Street_Address": "1300 Chichester Ave."}, {"City": "McKee", "NAME": "Daniel Boone Community Action Agency Inc.", "Zip": "40447", "LONGITUDE": -84.031, "State": "KY", "LATITUDE": 37.3864, "TYPE": "Affiliate Job Center", "Street_Address": "5748 Highway 290"}, {"City": "Paintsville", "NAME": "Paintsville-Big Sandy Area Community Action Program", "Zip": "41240", "LONGITUDE": -82.807045, "State": "KY", "LATITUDE": 37.814158, "TYPE": "Affiliate Job Center", "Street_Address": "230 Court Street"}, {"City": "Frankfort", "NAME": "Office of Employment and Training", "Zip": "40601", "LONGITUDE": -84.898941, "State": "KY", "LATITUDE": 38.178311, "TYPE": "Affiliate Job Center", "Street_Address": "1121 Louisville Road, Suite 6"}, {"City": "Williamsburg", "NAME": "Williamsburg Community Based Services", "Zip": "40769", "LONGITUDE": -84.154959, "State": "KY", "LATITUDE": 36.732457, "TYPE": "Affiliate Job Center", "Street_Address": "1000 S Highway 25 W"}, {"City": "Carlisle", "NAME": "Nicholas County Center Community Action Council", "Zip": "40311", "LONGITUDE": -84.00859, "State": "KY", "LATITUDE": 38.317903, "TYPE": "Affiliate Job Center", "Street_Address": "149 Scrubgrass Road"}, {"City": "Stanton", "NAME": "Central Kentucky Job Center - Powell County School Board Annex", "Zip": "40380", "LONGITUDE": -83.861002, "State": "KY", "LATITUDE": 37.85168, "TYPE": "Affiliate Job Center", "Street_Address": "691 Breckenridge Street"}, {"City": "Cumberland", "NAME": "Cumberland-Southeast Kentucky Community and Technical College-Cumberland Campus", "Zip": "40823", "LONGITUDE": -82.995114, "State": "KY", "LATITUDE": 36.970467, "TYPE": "Affiliate Job Center", "Street_Address": "700 College Road"}, {"City": "Hazard", "NAME": "Hazard-Hazard Community and Technical College", "Zip": "41701", "LONGITUDE": -83.174507, "State": "KY", "LATITUDE": 37.233625, "TYPE": "Affiliate Job Center", "Street_Address": "One Community College Drive"}, {"City": "West Liberty", "NAME": "West Liberty-Gateway Community Service Organization", "Zip": "41472", "LONGITUDE": -83.2674, "State": "KY", "LATITUDE": 37.9198, "TYPE": "Affiliate Job Center", "Street_Address": "151 University Drive, PO Box 367"}, {"City": "Gloucester", "NAME": "North Shore Career Center of Gloucester", "Zip": "01930", "LONGITUDE": -70.661699, "State": "MA", "LATITUDE": 42.612994, "TYPE": "Affiliate Job Center", "Street_Address": "5 Pleasant Street"}, {"City": "Gardner", "NAME": "Gardner Career Center", "Zip": "01440", "LONGITUDE": -71.995068, "State": "MA", "LATITUDE": 42.575394, "TYPE": "Affiliate Job Center", "Street_Address": "25 Main Street"}, {"City": "Chelsea", "NAME": "Career Source Chelsea (Satellite)", "Zip": "02150", "LONGITUDE": -71.03088, "State": "MA", "LATITUDE": 42.3945, "TYPE": "Affiliate Job Center", "Street_Address": "4 Gerrish Ave"}, {"City": "BWI Airport", "NAME": "BWI Thurgood Marshall Airport One Stop", "Zip": "21240", "LONGITUDE": -76.6748, "State": "MD", "LATITUDE": 39.1843, "TYPE": "Affiliate Job Center", "Street_Address": "Main Terminal Concourse C, 401 Headquarters Dr., Ste 208, Millersville, MD 21108"}, {"City": "Centreville", "NAME": "Queen Anne`s County Career Center", "Zip": "21617", "LONGITUDE": -76.071925, "State": "MD", "LATITUDE": 39.033725, "TYPE": "Affiliate Job Center", "Street_Address": "125 Comet Drive"}, {"City": "Columbia", "NAME": "Columbia Workforce Center", "Zip": "21046", "LONGITUDE": -76.806655, "State": "MD", "LATITUDE": 39.180335, "TYPE": "Affiliate Job Center", "Street_Address": "7161 Columbia Gateway Drive, Suite D"}, {"City": "Baltimore", "NAME": "Mayor`s Office of Employment Development/Eastside Career OneStop Center", "Zip": "21205", "LONGITUDE": -76.574926, "State": "MD", "LATITUDE": 39.300145, "TYPE": "Affiliate Job Center", "Street_Address": "3001 East Madison Street"}, {"City": "Germantown", "NAME": "Montgomery Works", "Zip": "20874", "LONGITUDE": -77.267605, "State": "MD", "LATITUDE": 39.178869, "TYPE": "Affiliate Job Center", "Street_Address": "12900 Middlebrook Road"}, {"City": "Hanover", "NAME": "Anne Arundel Community College and One Stop Career Center", "Zip": "21076", "LONGITUDE": -76.722739, "State": "MD", "LATITUDE": 39.154704, "TYPE": "Affiliate Job Center", "Street_Address": "7000 Arundel Mills Circle"}, {"City": "Lincoln", "NAME": "Michigan Works! Alcona Service Center", "Zip": "48742", "LONGITUDE": -83.411719, "State": "MI", "LATITUDE": 44.683781, "TYPE": "Affiliate Job Center", "Street_Address": "202 South 2nd Street, Suite B; P.O. Box 316"}, {"City": "Cheboygan", "NAME": "Michigan Works! Cheboygan Service Center", "Zip": "49721", "LONGITUDE": -84.478537, "State": "MI", "LATITUDE": 45.622502, "TYPE": "Affiliate Job Center", "Street_Address": "11153 N Straits Hwy"}, {"City": "Sparta", "NAME": "Michigan Works! Service Center- Sparta", "Zip": "49345", "LONGITUDE": -85.721561, "State": "MI", "LATITUDE": 43.160821, "TYPE": "Affiliate Job Center", "Street_Address": "36 Applewood Drive"}, {"City": "Onaway", "NAME": "Michigan Works! Presque Isle County Service Center - Northeast Michigan Consortium", "Zip": "49765", "LONGITUDE": -84.228218, "State": "MI", "LATITUDE": 45.357575, "TYPE": "Affiliate Job Center", "Street_Address": "20709 State Street, P.O. Box 711"}, {"City": "St. Ignace", "NAME": "Michigan Works!", "Zip": "49781", "LONGITUDE": -84.720571, "State": "MI", "LATITUDE": 45.866102, "TYPE": "Affiliate Job Center", "Street_Address": "6 Spring Street, Suite 102"}, {"City": "Munising", "NAME": "Michigan Works! The Job Force", "Zip": "49862", "LONGITUDE": -86.656043, "State": "MI", "LATITUDE": 46.410842, "TYPE": "Affiliate Job Center", "Street_Address": "114 W. Superior Street"}, {"City": "Newberry", "NAME": "Michigan Works!", "Zip": "49868", "LONGITUDE": -85.515764, "State": "MI", "LATITUDE": 46.352703, "TYPE": "Affiliate Job Center", "Street_Address": "501 West Harrie Street"}, {"City": "Grayling", "NAME": "Michigan Works! Crawford Service Center", "Zip": "49738", "LONGITUDE": -84.699278, "State": "MI", "LATITUDE": 44.651144, "TYPE": "Affiliate Job Center", "Street_Address": "4595 Salling Drive"}, {"City": "Gaylord", "NAME": "Michigan Works! Otsego Service Center", "Zip": "49735", "LONGITUDE": -84.684, "State": "MI", "LATITUDE": 44.9895, "TYPE": "Affiliate Job Center", "Street_Address": "2927 D & M Drive"}, {"City": "Mio", "NAME": "Michigan Works! Oscoda County Service Center", "Zip": "48647", "LONGITUDE": -84.129817, "State": "MI", "LATITUDE": 44.621132, "TYPE": "Affiliate Job Center", "Street_Address": "1329 South Mt. Tom Road"}, {"City": "Grosse Pointe", "NAME": "Grosse Pointe Michigan Works Salellite Center", "Zip": "48230", "LONGITUDE": -82.916571, "State": "MI", "LATITUDE": 42.403542, "TYPE": "Affiliate Job Center", "Street_Address": "17888 Mack Ave."}, {"City": "Manistique", "NAME": "Michigan Works! The Job Force", "Zip": "49854", "LONGITUDE": -86.244321, "State": "MI", "LATITUDE": 45.95979, "TYPE": "Affiliate Job Center", "Street_Address": "200 North Maple Street"}, {"City": "Fort Leonard Wood", "NAME": "Missouri Career Center - Fort  Leonard Wood", "Zip": "65473", "LONGITUDE": -92.102972, "State": "MO", "LATITUDE": 37.765084, "TYPE": "Affiliate Job Center", "Street_Address": "140 Replacement Ave, Room 2203, Bldg 470; P.O. Box 440"}, {"City": "Columbia", "NAME": "Missouri Career Center - Columbia", "Zip": "65202-1921", "LONGITUDE": -92.315878, "State": "MO", "LATITUDE": 38.971151, "TYPE": "Affiliate Job Center", "Street_Address": "1500 Vandiver Drive, Suite 115"}, {"City": "Fayette", "NAME": "Howard County Family Resource Center", "Zip": "65248", "LONGITUDE": -92.689078, "State": "MO", "LATITUDE": 39.143566, "TYPE": "Affiliate Job Center", "Street_Address": "600 West Morrison, Keller Building"}, {"City": "Boonville", "NAME": "Central MO Community Action/Cooper County Family Resource Center", "Zip": "65233", "LONGITUDE": -92.744638, "State": "MO", "LATITUDE": 38.977495, "TYPE": "Affiliate Job Center", "Street_Address": "401 E High St."}, {"City": "California", "NAME": "Moniteau County Family Resource Center", "Zip": "65018", "LONGITUDE": -92.56636, "State": "MO", "LATITUDE": 38.630346, "TYPE": "Affiliate Job Center", "Street_Address": "318 South Oak Street"}, {"City": "LaBelle", "NAME": "Gamm, Inc.", "Zip": "63447", "LONGITUDE": -91.911545, "State": "MO", "LATITUDE": 40.114242, "TYPE": "Affiliate Job Center", "Street_Address": "103 S. 3rd St., P.O. Box 49"}, {"City": "Poplar Bluff", "NAME": "South Central Missouri Community Action Agency", "Zip": "63901", "LONGITUDE": -90.400954, "State": "MO", "LATITUDE": 36.758414, "TYPE": "Affiliate Job Center", "Street_Address": "842 W. Pine"}, {"City": "East Prairie", "NAME": "Susanna Wesley Family Learning Center", "Zip": "63845", "LONGITUDE": -89.386522, "State": "MO", "LATITUDE": 36.780289, "TYPE": "Affiliate Job Center", "Street_Address": "207 North Washington, P.O. Box 249"}, {"City": "New Madrid", "NAME": "New Madrid County Family Resource Center", "Zip": "63869", "LONGITUDE": -89.525875, "State": "MO", "LATITUDE": 36.588248, "TYPE": "Affiliate Job Center", "Street_Address": "420 Virginia Street"}, {"City": "Waynesville", "NAME": "Pulaski County Work Connections", "Zip": "65583", "LONGITUDE": -92.211075, "State": "MO", "LATITUDE": 37.823762, "TYPE": "Affiliate Job Center", "Street_Address": "704 Historic Route 66 West, Unit 101"}, {"City": "Mountain View", "NAME": "Ozark Action, Inc.", "Zip": "65548", "LONGITUDE": -91.6781, "State": "MO", "LATITUDE": 37.0006, "TYPE": "Affiliate Job Center", "Street_Address": "1402 East US Highway 60"}, {"City": "Linn", "NAME": "Central MO Community Action Osage County Resource Center", "Zip": "65051", "LONGITUDE": -91.851576, "State": "MO", "LATITUDE": 38.485708, "TYPE": "Affiliate Job Center", "Street_Address": "305 E. Main Street, P.O. Box 228"}, {"City": "Maryville", "NAME": "Missouri Career Center (Maryville)", "Zip": "64468", "LONGITUDE": -94.873158, "State": "MO", "LATITUDE": 40.347926, "TYPE": "Affiliate Job Center", "Street_Address": "114 West Third Street"}, {"City": "Fulton", "NAME": "Central MO Community Action/Callaway County Family Resource Center", "Zip": "65251", "LONGITUDE": -91.960756, "State": "MO", "LATITUDE": 38.834501, "TYPE": "Affiliate Job Center", "Street_Address": "610 Collier Lane"}, {"City": "Clarksville", "NAME": "Pike-Lincoln Technical Center", "Zip": "63336", "LONGITUDE": -90.949365, "State": "MO", "LATITUDE": 39.291845, "TYPE": "Affiliate Job Center", "Street_Address": "28176 Hwy WW, P.O. Box 38 Eolia, MO  63344"}, {"City": "Trenton", "NAME": "Trenton Missouri Career Center", "Zip": "64683", "LONGITUDE": -93.617448, "State": "MO", "LATITUDE": 40.076187, "TYPE": "Affiliate Job Center", "Street_Address": "1104 Main Street"}, {"City": "Greenville", "NAME": "Greenville WIN Job Center", "Zip": "38704", "LONGITUDE": -91.037909, "State": "MS", "LATITUDE": 33.394896, "TYPE": "Affiliate Job Center", "Street_Address": "800 Highway 1 South, Delta Plaza Malls; P.O. Box 5815"}, {"City": "Corinth", "NAME": "Corinth WIN Job Center", "Zip": "38834", "LONGITUDE": -88.532758, "State": "MS", "LATITUDE": 34.908892, "TYPE": "Affiliate Job Center", "Street_Address": "2759 South Harper Road"}, {"City": "Brookhaven", "NAME": "Brookhaven WIN Job Center", "Zip": "39602", "LONGITUDE": -90.451044, "State": "MS", "LATITUDE": 31.580123, "TYPE": "Affiliate Job Center", "Street_Address": "545 Brookway Boulevard, P.O. Box 790"}, {"City": "New Albany", "NAME": "New Albany WIN Job Center", "Zip": "38652", "LONGITUDE": -88.998978, "State": "MS", "LATITUDE": 34.49321, "TYPE": "Affiliate Job Center", "Street_Address": "301 North Street"}, {"City": "Lexington", "NAME": "Lexington WIN Job Center", "Zip": "39095", "LONGITUDE": -90.052766, "State": "MS", "LATITUDE": 33.108451, "TYPE": "Affiliate Job Center", "Street_Address": "303 Yazoo Street, P.O. Box 385"}, {"City": "Pontotoc", "NAME": "Pontotoc WIN Job Center", "Zip": "38863", "LONGITUDE": -89.017927, "State": "MS", "LATITUDE": 34.255501, "TYPE": "Affiliate Job Center", "Street_Address": "182 Highway 15 North"}, {"City": "Cut Bank", "NAME": "Cut Bank Job Service Workforce Center", "Zip": "59427-3015", "LONGITUDE": -112.32646, "State": "MT", "LATITUDE": 48.632913, "TYPE": "Affiliate Job Center", "Street_Address": "501 East Main St."}, {"City": "Shelby", "NAME": "Shelby Job Service Workforce Center", "Zip": "59474", "LONGITUDE": -111.856962, "State": "MT", "LATITUDE": 48.505443, "TYPE": "Affiliate Job Center", "Street_Address": "202 Main Street"}, {"City": "Glendive", "NAME": "Glendive Job Service", "Zip": "59330", "LONGITUDE": -104.715901, "State": "MT", "LATITUDE": 47.103989, "TYPE": "Affiliate Job Center", "Street_Address": "211 South Kendrick Avenue"}, {"City": "Miles City", "NAME": "Miles City Job Service Workforce Center", "Zip": "59301", "LONGITUDE": -105.845815, "State": "MT", "LATITUDE": 46.407864, "TYPE": "Affiliate Job Center", "Street_Address": "12 North 10th Street, P.O. Box 1786"}, {"City": "Windsor", "NAME": "Bertie County JobLink Career Center", "Zip": "27983", "LONGITUDE": -76.908849, "State": "NC", "LATITUDE": 35.998726, "TYPE": "Affiliate Job Center", "Street_Address": "1001 South King Street"}, {"City": "Sylva", "NAME": "Jackson County JobLink Career Center", "Zip": "28779", "LONGITUDE": -83.228489, "State": "NC", "LATITUDE": 35.373488, "TYPE": "Affiliate Job Center", "Street_Address": "26 Ridgeway Street, Suite 2"}, {"City": "Marshall", "NAME": "Madison County JobLink Career Center", "Zip": "28753", "LONGITUDE": -82.665765, "State": "NC", "LATITUDE": 35.805842, "TYPE": "Affiliate Job Center", "Street_Address": "4646 US Highway 25-70"}, {"City": "Yanceyville", "NAME": "Caswell JobLink Career Center", "Zip": "27379", "LONGITUDE": -79.325212, "State": "NC", "LATITUDE": 36.397213, "TYPE": "Affiliate Job Center", "Street_Address": "331 Piedmont Drive, K Building Room 213"}, {"City": "Hudson", "NAME": "Caldwell County JobLink Career Center", "Zip": "28638", "LONGITUDE": -81.484345, "State": "NC", "LATITUDE": 35.856702, "TYPE": "Affiliate Job Center", "Street_Address": "2855 Hickory Blvd"}, {"City": "Dunn", "NAME": "North Carolina Department of Labor, Division of Workforce Solutions", "Zip": "28334", "LONGITUDE": -78.63312, "State": "NC", "LATITUDE": 35.311736, "TYPE": "Affiliate Job Center", "Street_Address": "101 Hunt Valley Drive"}, {"City": "Trenton", "NAME": "Jones County JobLink Career Center", "Zip": "28585", "LONGITUDE": -77.4357, "State": "NC", "LATITUDE": 35.0734, "TYPE": "Affiliate Job Center", "Street_Address": "509 Highway 58 North, P.O. Box 156"}, {"City": "Charlotte", "NAME": "Charlotte-Mecklenburg JobLink Career Center - Albemarle Road/Executive Center", "Zip": "28212", "LONGITUDE": -80.744089, "State": "NC", "LATITUDE": 35.201807, "TYPE": "Affiliate Job Center", "Street_Address": "5601 Executive Center Drive, Suite 100"}, {"City": "Hendersonville", "NAME": "Hendersonville JobLink Career Center at North Carolina Dept. of Commerce Division of Workforce Solutions", "Zip": "28792", "LONGITUDE": -82.436488, "State": "NC", "LATITUDE": 35.344456, "TYPE": "Affiliate Job Center", "Street_Address": "26 Francis Rd"}, {"City": "Warrenton", "NAME": "Warren County JobLink Career Center  Division of Workforce Solutions", "Zip": "27589", "LONGITUDE": -78.153695, "State": "NC", "LATITUDE": 36.402852, "TYPE": "Affiliate Job Center", "Street_Address": "309 North Main Street, Room 123"}, {"City": "Fuquay Varina", "NAME": "Capital Area JobLink Career Center - Southern Regional", "Zip": "27526", "LONGITUDE": -78.782064, "State": "NC", "LATITUDE": 35.585878, "TYPE": "Affiliate Job Center", "Street_Address": "130 N. Judd Parkway NE"}, {"City": "Raeford", "NAME": "Hoke County Joblink Career Center", "Zip": "28376", "LONGITUDE": -79.226604, "State": "NC", "LATITUDE": 34.970994, "TYPE": "Affiliate Job Center", "Street_Address": "304 Birch Street"}, {"City": "Snow Hill", "NAME": "Greene County JobLink Career Center", "Zip": "28580", "LONGITUDE": -77.671488, "State": "NC", "LATITUDE": 35.475232, "TYPE": "Affiliate Job Center", "Street_Address": "818 Hwy 91 North"}, {"City": "Bayboro", "NAME": "Pamlico County JobLink Career Center", "Zip": "28515", "LONGITUDE": -76.779739, "State": "NC", "LATITUDE": 35.143419, "TYPE": "Affiliate Job Center", "Street_Address": "705 Main Street, P.O. Box 185 Grantsboro (28529)"}, {"City": "Zebulon", "NAME": "Capital Area JobLink Career Center - Eastern Regional Center", "Zip": "27597", "LONGITUDE": -78.321325, "State": "NC", "LATITUDE": 35.836553, "TYPE": "Affiliate Job Center", "Street_Address": "1002 Dogwood Drive"}, {"City": "Walnut Cove", "NAME": "NC Joblink Access Point Share Network", "Zip": "27052", "LONGITUDE": -80.141306, "State": "NC", "LATITUDE": 36.304414, "TYPE": "Affiliate Job Center", "Street_Address": "904 North Main Street"}, {"City": "Charlotte", "NAME": "Charlotte-Mecklenburg JobLink Career Center - Arrowood", "Zip": "28217", "LONGITUDE": -80.899464, "State": "NC", "LATITUDE": 35.142326, "TYPE": "Affiliate Job Center", "Street_Address": "7140 Forest Point Blvd., Suite A"}, {"City": "Clayton", "NAME": "Capital Area JobLink Career Center at Clayton Corners", "Zip": "27520", "LONGITUDE": -78.474569, "State": "NC", "LATITUDE": 35.65452, "TYPE": "Affiliate Job Center", "Street_Address": "11671 US Highway 70"}, {"City": "Harvey", "NAME": "Harvey Customer Service Office", "Zip": "58341", "LONGITUDE": -99.935882, "State": "ND", "LATITUDE": 47.769622, "TYPE": "Affiliate Job Center", "Street_Address": "119 9th Street West"}, {"City": "Oakes", "NAME": "Job Service North Dakota", "Zip": "58474", "LONGITUDE": -98.090519, "State": "ND", "LATITUDE": 46.129916, "TYPE": "Affiliate Job Center", "Street_Address": "924 South 7th Street"}, {"City": "Omaha", "NAME": "Nebraska Department of Labor", "Zip": "68117-2822", "LONGITUDE": -96.001343, "State": "NE", "LATITUDE": 41.219679, "TYPE": "Affiliate Job Center", "Street_Address": "5717 F Street"}, {"City": "Scottsbluff", "NAME": "NE Department of Labor, Scottsbluff Office", "Zip": "69361-2708", "LONGITUDE": -103.6392, "State": "NE", "LATITUDE": 41.8664, "TYPE": "Affiliate Job Center", "Street_Address": "505 A Broadway Avenue, Suite 300"}, {"City": "McCook", "NAME": "Nebraska Department of Labor; McCook Workforce Development", "Zip": "69001", "LONGITUDE": -100.624256, "State": "NE", "LATITUDE": 40.198552, "TYPE": "Affiliate Job Center", "Street_Address": "212 East B Street"}, {"City": "York", "NAME": "Nebraska Dept. of Labor  - York Career Center", "Zip": "68467-2997", "LONGITUDE": -97.592893, "State": "NE", "LATITUDE": 40.865637, "TYPE": "Affiliate Job Center", "Street_Address": "510 Lincoln Avenue"}, {"City": "Portsmouth", "NAME": "NH WORKS Portsmouth", "Zip": "03801-5673", "LONGITUDE": -70.776986, "State": "NH", "LATITUDE": 43.038102, "TYPE": "Affiliate Job Center", "Street_Address": "2000 Lafayette Road"}, {"City": "Somersworth", "NAME": "Somersworth  NH Workers Center", "Zip": "03878", "LONGITUDE": -70.900054, "State": "NH", "LATITUDE": 43.249016, "TYPE": "Affiliate Job Center", "Street_Address": "6 Marsh Brook Drive"}, {"City": "Littleton", "NAME": "NH WORKS Littleton", "Zip": "03561-0318", "LONGITUDE": -71.748208, "State": "NH", "LATITUDE": 44.30848, "TYPE": "Affiliate Job Center", "Street_Address": "646 Union Street, Suite100"}, {"City": "Salem", "NAME": "New Hampshire WORKS Salem", "Zip": "03079", "LONGITUDE": -71.226761, "State": "NH", "LATITUDE": 42.778253, "TYPE": "Affiliate Job Center", "Street_Address": "29 South Broadway"}, {"City": "Flemington", "NAME": "Flemington One Stop Career Center", "Zip": "08822-1787", "LONGITUDE": -74.880987, "State": "NJ", "LATITUDE": 40.541709, "TYPE": "Affiliate Job Center", "Street_Address": "215 Sand Hill Road"}, {"City": "Passaic", "NAME": "Passaic County One Stop Career Center", "Zip": "07055-4007", "LONGITUDE": -74.1356, "State": "NJ", "LATITUDE": 40.8581, "TYPE": "Affiliate Job Center", "Street_Address": "25 Howe Avenue"}, {"City": "Los Lunas", "NAME": "New Mexico Workforce Connection", "Zip": "87031", "LONGITUDE": -106.728981, "State": "NM", "LATITUDE": 34.803587, "TYPE": "Affiliate Job Center", "Street_Address": "428 Los Lentes Rd, SE"}, {"City": "Taos", "NAME": "Taos Workforce Connection", "Zip": "87571", "LONGITUDE": -105.595129, "State": "NM", "LATITUDE": 36.384204, "TYPE": "Affiliate Job Center", "Street_Address": "1036 Salazar Road"}, {"City": "Truth or Consequences", "NAME": "T or C Workforce Connection", "Zip": "87901", "LONGITUDE": -107.254071, "State": "NM", "LATITUDE": 33.134198, "TYPE": "Affiliate Job Center", "Street_Address": "400 West 4th Street"}, {"City": "Artesia", "NAME": "New Mexico Workforce Connection - Artesia", "Zip": "88210", "LONGITUDE": -104.404895, "State": "NM", "LATITUDE": 32.8423, "TYPE": "Affiliate Job Center", "Street_Address": "704 West Main Street"}, {"City": "Hobbs", "NAME": "New Mexico Workforce Connection - Lea County", "Zip": "88240", "LONGITUDE": -103.137581, "State": "NM", "LATITUDE": 32.706114, "TYPE": "Affiliate Job Center", "Street_Address": "204 West Park"}, {"City": "Roswell", "NAME": "New Mexico Workforce Development Center Chavez County", "Zip": "88203", "LONGITUDE": -104.523224, "State": "NM", "LATITUDE": 33.365208, "TYPE": "Affiliate Job Center", "Street_Address": "2110 South Main Street"}, {"City": "Carlsbad", "NAME": "N.M. Workforce Connection - Carlsbad", "Zip": "88220", "LONGITUDE": -104.230411, "State": "NM", "LATITUDE": 32.417685, "TYPE": "Affiliate Job Center", "Street_Address": "323 South Halagueno"}, {"City": "Alamogordo", "NAME": "Alamogordo Workforce Connection Center", "Zip": "88310", "LONGITUDE": -105.951366, "State": "NM", "LATITUDE": 32.898869, "TYPE": "Affiliate Job Center", "Street_Address": "901 Alaska Avenue"}, {"City": "Fallon", "NAME": "NV JobConnect", "Zip": "89406", "LONGITUDE": -118.796872, "State": "NV", "LATITUDE": 39.473736, "TYPE": "Affiliate Job Center", "Street_Address": "121 Industrial Way"}, {"City": "Ely", "NAME": "NV JobConnect/Ely", "Zip": "89301", "LONGITUDE": -114.860032, "State": "NV", "LATITUDE": 39.25794, "TYPE": "Affiliate Job Center", "Street_Address": "1500 Avenue F, Suite 1"}, {"City": "Elko", "NAME": "Nevada  JobConnect/Elko", "Zip": "89801", "LONGITUDE": -115.759773, "State": "NV", "LATITUDE": 40.831827, "TYPE": "Affiliate Job Center", "Street_Address": "172 Sixth Street"}, {"City": "Henderson", "NAME": "Henderson Job Connect", "Zip": "89015", "LONGITUDE": -114.983605, "State": "NV", "LATITUDE": 36.033443, "TYPE": "Affiliate Job Center", "Street_Address": "119 South Water Street"}, {"City": "Reno", "NAME": "Nevada JobConnect Reno", "Zip": "89502", "LONGITUDE": -119.794273, "State": "NV", "LATITUDE": 39.487186, "TYPE": "Affiliate Job Center", "Street_Address": "4001 South Virginia Street, Suite H"}, {"City": "Winnemucca", "NAME": "NV JobConnect/Winnemucca", "Zip": "89445", "LONGITUDE": -117.733064, "State": "NV", "LATITUDE": 40.965326, "TYPE": "Affiliate Job Center", "Street_Address": "475 West Haskell, Suite 1"}, {"City": "Pahrump", "NAME": "NYE Communities Coalition", "Zip": "89048", "LONGITUDE": -115.992082, "State": "NV", "LATITUDE": 36.212375, "TYPE": "Affiliate Job Center", "Street_Address": "1020 E. Wilson"}, {"City": "Carson City", "NAME": "NV JobConnect/Carson City", "Zip": "89701", "LONGITUDE": -119.766806, "State": "NV", "LATITUDE": 39.177968, "TYPE": "Affiliate Job Center", "Street_Address": "1929 North Carson Street"}, {"City": "Sparks", "NAME": "NevadaJobConnect", "Zip": "89434", "LONGITUDE": -119.712873, "State": "NV", "LATITUDE": 39.541866, "TYPE": "Affiliate Job Center", "Street_Address": "1675 East Prater Way, Suite 103"}, {"City": "New York", "NAME": "Career & Educational Consultants (CEC) - Brooklyn", "Zip": "10001", "LONGITUDE": -73.994437, "State": "NY", "LATITUDE": 40.748431, "TYPE": "Affiliate Job Center", "Street_Address": "252 West 29th Street, 3rd Floor"}, {"City": "Montour Falls", "NAME": "CSS Workforce NY Career Center", "Zip": "14865", "LONGITUDE": -76.844, "State": "NY", "LATITUDE": 42.3439, "TYPE": "Affiliate Job Center", "Street_Address": "323 Owego Street, Unit 11"}, {"City": "Williamsville", "NAME": "Williamsville One-Stop Center", "Zip": "14221", "LONGITUDE": -78.696724, "State": "NY", "LATITUDE": 42.960721, "TYPE": "Affiliate Job Center", "Street_Address": "4175 Transit Road, Transitown Plaza"}, {"City": "Patchogue", "NAME": "Division of Employment and Workforce Solutions", "Zip": "11772-3719", "LONGITUDE": -73.014086, "State": "NY", "LATITUDE": 40.763111, "TYPE": "Affiliate Job Center", "Street_Address": "160 South Ocean Avenue"}, {"City": "Bronx", "NAME": "Bronx Works/Workforce Development Inc.", "Zip": "10458", "LONGITUDE": -73.891331, "State": "NY", "LATITUDE": 40.861551, "TYPE": "Affiliate Job Center", "Street_Address": "400 E. Fordham Road"}, {"City": "Brooklyn", "NAME": "St. Nicholas Alliance Workforce Development", "Zip": "11206", "LONGITUDE": -73.940647, "State": "NY", "LATITUDE": 40.699931, "TYPE": "Affiliate Job Center", "Street_Address": "790 Broadway, 2nd Floor"}, {"City": "New York", "NAME": "Division of Employment and Workforce Solutions", "Zip": "10013", "LONGITUDE": -74.006342, "State": "NY", "LATITUDE": 40.722766, "TYPE": "Affiliate Job Center", "Street_Address": "75 Varick Street, 7th Floor"}, {"City": "Massapequa", "NAME": "Workforce Career Center", "Zip": "11758", "LONGITUDE": -73.477421, "State": "NY", "LATITUDE": 40.689979, "TYPE": "Affiliate Job Center", "Street_Address": "977 Hicksville Road"}, {"City": "Warsaw", "NAME": "Warsaw One-Stop", "Zip": "14569", "LONGITUDE": -78.1325, "State": "NY", "LATITUDE": 42.7468, "TYPE": "Affiliate Job Center", "Street_Address": "448 North Main Street"}, {"City": "Buffalo", "NAME": "Buffalo Employment Office", "Zip": "14202", "LONGITUDE": -78.875625, "State": "NY", "LATITUDE": 42.882053, "TYPE": "Affiliate Job Center", "Street_Address": "284 Main Street"}, {"City": "Perry", "NAME": "Wyoming County Community Action", "Zip": "14530", "LONGITUDE": -78.055428, "State": "NY", "LATITUDE": 42.744434, "TYPE": "Affiliate Job Center", "Street_Address": "6470 Rt. 20A, Suite 1"}, {"City": "Lockport", "NAME": "Lockport WorkforceOne Center", "Zip": "14094", "LONGITUDE": -78.692541, "State": "NY", "LATITUDE": 43.168748, "TYPE": "Affiliate Job Center", "Street_Address": "81 Walnut Street"}, {"City": "Geneseo", "NAME": "Livingston County Center for Workforce", "Zip": "14454", "LONGITUDE": -77.816348, "State": "NY", "LATITUDE": 42.800295, "TYPE": "Affiliate Job Center", "Street_Address": "6 Court Street, Room 105"}, {"City": "Sidney", "NAME": "CDO Workforce", "Zip": "13838", "LONGITUDE": -75.390123, "State": "NY", "LATITUDE": 42.316683, "TYPE": "Affiliate Job Center", "Street_Address": "21 Liberty Street, Sidney Civic Center Room 221"}, {"City": "Delhi", "NAME": "CDO Workforce", "Zip": "13753", "LONGITUDE": -74.910864, "State": "NY", "LATITUDE": 42.281285, "TYPE": "Affiliate Job Center", "Street_Address": "1 Gallant Avenue, Suite 1"}, {"City": "Brooklyn", "NAME": "NYS Department of Labor - Division of Employment Services", "Zip": "11201", "LONGITUDE": -73.984203, "State": "NY", "LATITUDE": 40.688194, "TYPE": "Affiliate Job Center", "Street_Address": "250 Schermerhorn Street"}, {"City": "Rochester", "NAME": "Veterans Outreach Center", "Zip": "14620", "LONGITUDE": -77.605853, "State": "NY", "LATITUDE": 43.147136, "TYPE": "Affiliate Job Center", "Street_Address": "447 South Avenue"}, {"City": "Bath", "NAME": "Bath Career Center", "Zip": "14810", "LONGITUDE": -77.313874, "State": "NY", "LATITUDE": 42.333332, "TYPE": "Affiliate Job Center", "Street_Address": "117 East Steuben Street"}, {"City": "Canandaigua", "NAME": "Finger Lakes Works - Ontario - (Resource Room)", "Zip": "14424", "LONGITUDE": -77.215007, "State": "NY", "LATITUDE": 42.885369, "TYPE": "Affiliate Job Center", "Street_Address": "3010 County Complex Drive"}, {"City": "Orchard Park", "NAME": "Erie Community College One-Stop Center/NYSDOL", "Zip": "14127", "LONGITUDE": -78.800491, "State": "NY", "LATITUDE": 42.774153, "TYPE": "Affiliate Job Center", "Street_Address": "4041 Southwestern Blvd., Room #5208"}, {"City": "Ft. Cobb", "NAME": "Workforce Oklahoma Center, Chickasha/Ft Cobb", "Zip": "73038", "LONGITUDE": -98.442563, "State": "OK", "LATITUDE": 35.102725, "TYPE": "Affiliate Job Center", "Street_Address": "1415 N. 7th Street, Caddo Kiowa Technology Center,  P.O. Box 190"}, {"City": "Portland", "NAME": "Central City Concern- Employment Access Center", "Zip": "97209", "LONGITUDE": -122.672283, "State": "OR", "LATITUDE": 45.523263, "TYPE": "Affiliate Job Center", "Street_Address": "2 North West  2nd  Avenue"}, {"City": "Port Orford", "NAME": "Worksource Oregon - North Curry Families` and Children`s Center", "Zip": "97465", "LONGITUDE": -124.434133, "State": "OR", "LATITUDE": 42.688432, "TYPE": "Affiliate Job Center", "Street_Address": "1403 Hwy 101, P.O. Box 1145 (97465)"}, {"City": "Portland", "NAME": "Worksource Portland Metro SE", "Zip": "97206", "LONGITUDE": -122.582104, "State": "OR", "LATITUDE": 45.483983, "TYPE": "Affiliate Job Center", "Street_Address": "7916 SE Foster Road, Suite 104"}, {"City": "Lincoln City", "NAME": "WorkSource Oregon", "Zip": "97367", "LONGITUDE": -124.015107, "State": "OR", "LATITUDE": 44.961126, "TYPE": "Affiliate Job Center", "Street_Address": "801 SouthWest Highway 101, Suite 102"}, {"City": "Springfield", "NAME": "Springfield Main Street Center", "Zip": "97478", "LONGITUDE": -122.982782, "State": "OR", "LATITUDE": 44.045854, "TYPE": "Affiliate Job Center", "Street_Address": "101 30th Street"}, {"City": "La Grande", "NAME": "La Grande One Stop", "Zip": "97850", "LONGITUDE": -118.085383, "State": "OR", "LATITUDE": 45.323012, "TYPE": "Affiliate Job Center", "Street_Address": "1901 Adams Avenue"}, {"City": "Roseburg", "NAME": "WorkSource - Douglas County", "Zip": "97470", "LONGITUDE": -123.348587, "State": "OR", "LATITUDE": 43.207752, "TYPE": "Affiliate Job Center", "Street_Address": "846 SE Pine Street"}, {"City": "Enterprise", "NAME": "WorkSource Oregon", "Zip": "97828", "LONGITUDE": -117.277659, "State": "OR", "LATITUDE": 45.422419, "TYPE": "Affiliate Job Center", "Street_Address": "104 Litch Street, P.O. Box 649"}, {"City": "Eugene", "NAME": "Worksource Lane -The Workforce Network", "Zip": "97405", "LONGITUDE": -123.03629, "State": "OR", "LATITUDE": 44.014187, "TYPE": "Affiliate Job Center", "Street_Address": "4000 East 30th Avenue, Lane  Campus, Bldg. 19"}, {"City": "Pendleton", "NAME": "WorkSource Oregon - Pendleton", "Zip": "97801", "LONGITUDE": -118.779538, "State": "OR", "LATITUDE": 45.672529, "TYPE": "Affiliate Job Center", "Street_Address": "408 SE 7th Street"}, {"City": "Tillamook", "NAME": "MTC Works", "Zip": "97141", "LONGITUDE": -123.843057, "State": "OR", "LATITUDE": 45.454784, "TYPE": "Affiliate Job Center", "Street_Address": "2101 5th Street"}, {"City": "Canyon City", "NAME": "WorkSource Oregon", "Zip": "97820", "LONGITUDE": -118.949227, "State": "OR", "LATITUDE": 44.388462, "TYPE": "Affiliate Job Center", "Street_Address": "120 S Washington Street, P.O. Box 40"}, {"City": "Florence", "NAME": "WorkSource Oregon", "Zip": "97439", "LONGITUDE": -124.101322, "State": "OR", "LATITUDE": 43.994188, "TYPE": "Affiliate Job Center", "Street_Address": "3180 Highway 101 North"}, {"City": "North Bend", "NAME": "Worksource Oregon Employment Department", "Zip": "97459", "LONGITUDE": -124.222885, "State": "OR", "LATITUDE": 43.405656, "TYPE": "Affiliate Job Center", "Street_Address": "2075 Sheridan Avenue"}, {"City": "Prineville", "NAME": "WorkSource Oregon", "Zip": "97754", "LONGITUDE": -120.817414, "State": "OR", "LATITUDE": 44.302968, "TYPE": "Affiliate Job Center", "Street_Address": "2321 North East 3rd Street"}, {"City": "Lakeview", "NAME": "Central Oregon Inter-Governmental Council", "Zip": "97630", "LONGITUDE": -120.347104, "State": "OR", "LATITUDE": 42.190236, "TYPE": "Affiliate Job Center", "Street_Address": "103 North G Street"}, {"City": "Burns", "NAME": "WorkSource Oregon - Burns Employment Dept.", "Zip": "97720", "LONGITUDE": -119.0591, "State": "OR", "LATITUDE": 43.5848, "TYPE": "Affiliate Job Center", "Street_Address": "809 West Jackson Street, Suite 400"}, {"City": "Bend", "NAME": "Worksource Oregon Employment Department", "Zip": "97701-4990", "LONGITUDE": -121.281658, "State": "OR", "LATITUDE": 44.056093, "TYPE": "Affiliate Job Center", "Street_Address": "1645 North East Forbes Road, Suite 100"}, {"City": "Bend", "NAME": "Bend Vocational Rehabilitation", "Zip": "97701", "LONGITUDE": -121.302438, "State": "OR", "LATITUDE": 44.062245, "TYPE": "Affiliate Job Center", "Street_Address": "1230 North East Third Street, Suite A-152"}, {"City": "Madras", "NAME": "Worksource Oregon Employment Department", "Zip": "97741", "LONGITUDE": -121.132138, "State": "OR", "LATITUDE": 44.632632, "TYPE": "Affiliate Job Center", "Street_Address": "243 South West Third Street, Suite B"}, {"City": "Grants Pass", "NAME": "WorkSource Oregon", "Zip": "97526", "LONGITUDE": -123.30904, "State": "OR", "LATITUDE": 42.434907, "TYPE": "Affiliate Job Center", "Street_Address": "1569 North East F Street"}, {"City": "Hermiston", "NAME": "WorkSource Oregon Hermiston", "Zip": "97838", "LONGITUDE": -119.273002, "State": "OR", "LATITUDE": 45.828319, "TYPE": "Affiliate Job Center", "Street_Address": "950 SE Columbia Drive, Suite B"}, {"City": "Portland", "NAME": "Worksource Portland Metro Central", "Zip": "97217", "LONGITUDE": -122.667192, "State": "OR", "LATITUDE": 45.559768, "TYPE": "Affiliate Job Center", "Street_Address": "30 North Webster Street, Suite E"}, {"City": "Portland", "NAME": "WorkSource Portland Metro East", "Zip": "97233", "LONGITUDE": -122.46247, "State": "OR", "LATITUDE": 45.51919, "TYPE": "Affiliate Job Center", "Street_Address": "19421 South East Stark Street"}, {"City": "Tunkhannock", "NAME": "PA CareerLink Wyoming County", "Zip": "18657-9803", "LONGITUDE": -75.947062, "State": "PA", "LATITUDE": 41.538145, "TYPE": "Affiliate Job Center", "Street_Address": "99 Bridge St."}, {"City": "Shohola", "NAME": "Pike County Workforce Development Agency", "Zip": "18458", "LONGITUDE": -74.91681, "State": "PA", "LATITUDE": 41.365403, "TYPE": "Affiliate Job Center", "Street_Address": "837 Route 6, Unit 2"}, {"City": "Towanda", "NAME": "PA CareerLink Bradford/Sullivan Counties", "Zip": "18848-1844", "LONGITUDE": -76.44322, "State": "PA", "LATITUDE": 41.76768, "TYPE": "Affiliate Job Center", "Street_Address": "312 Main Street, Suite 1"}, {"City": "Somerset", "NAME": "Somerset County Office of  Veterans Services", "Zip": "15501", "LONGITUDE": -79.078516, "State": "PA", "LATITUDE": 40.010293, "TYPE": "Affiliate Job Center", "Street_Address": "300 North Center Avenue, Ste. 380"}, {"City": "Pittsburgh", "NAME": "Eastside Neighborhood Employment Center", "Zip": "15224", "LONGITUDE": -79.938175, "State": "PA", "LATITUDE": 40.464666, "TYPE": "Affiliate Job Center", "Street_Address": "5321 Penn Avenue"}, {"City": "Monroeville", "NAME": "Forbes Road Career & Technology Center", "Zip": "15146", "LONGITUDE": -79.7524, "State": "PA", "LATITUDE": 40.45194, "TYPE": "Affiliate Job Center", "Street_Address": "607 Beatty Road"}, {"City": "Pittsburgh", "NAME": "PA CareerLink \u00ae at Goodwill of Southwestern Pennsylvania", "Zip": "15201", "LONGITUDE": -79.9526, "State": "PA", "LATITUDE": 40.4792, "TYPE": "Affiliate Job Center", "Street_Address": "118 52nd Street"}, {"City": "Trujillo Alto", "NAME": "Centro de Gesti\u00f3n \u00danica Laboral Trujillo Alto", "Zip": "00976", "LONGITUDE": -66.006586, "State": "PR", "LATITUDE": 18.354553, "TYPE": "Affiliate Job Center", "Street_Address": "Calle Munoz Rivera #15"}, {"City": "Guayama", "NAME": "One Stop Center - Guayama and Arroyo", "Zip": "00785", "LONGITUDE": -66.792, "State": "PR", "LATITUDE": 18.0291, "TYPE": "Affiliate Job Center", "Street_Address": "2do Piso, Casa Alcald\u00eda"}, {"City": "Cayey", "NAME": "One Stop Center for Cayey and Aibonito", "Zip": "00736", "LONGITUDE": -66.1643, "State": "PR", "LATITUDE": 18.1134, "TYPE": "Affiliate Job Center", "Street_Address": "Calle Jose de Diego #151 Este"}, {"City": "Las Marias", "NAME": "Satellite Office for Las Marias", "Zip": "00670", "LONGITUDE": -66.9891, "State": "PR", "LATITUDE": 18.2356, "TYPE": "Affiliate Job Center", "Street_Address": "77 Ave. Matias Brugman # 2"}, {"City": "Carolina", "NAME": "Agencia Municipal de Oportunidad de Empleo (AMOE-Carolina)", "Zip": "00985-0899", "LONGITUDE": -65.9569, "State": "PR", "LATITUDE": 18.3966, "TYPE": "Affiliate Job Center", "Street_Address": "Amado San Fernando, PO Box 899"}, {"City": "West Warwick", "NAME": "West Warwick netWORKri Center", "Zip": "02893", "LONGITUDE": -71.523296, "State": "RI", "LATITUDE": 41.701979, "TYPE": "Affiliate Job Center", "Street_Address": "1330 Main Street"}, {"City": "Wakefield", "NAME": "Wakefield netWorkri", "Zip": "02879", "LONGITUDE": -71.472397, "State": "RI", "LATITUDE": 41.449154, "TYPE": "Affiliate Job Center", "Street_Address": "4808 Tower Hill Road"}, {"City": "Woonsocket", "NAME": "WOONSOCKET netWORKri Center", "Zip": "02895", "LONGITUDE": -71.510919, "State": "RI", "LATITUDE": 42.008406, "TYPE": "Affiliate Job Center", "Street_Address": "219 Pond Street"}, {"City": "Greenwood", "NAME": "SC Works Center at Piedmont Technical College", "Zip": "29646", "LONGITUDE": -82.119035, "State": "SC", "LATITUDE": 34.208883, "TYPE": "Affiliate Job Center", "Street_Address": "620 North Emerald Road"}, {"City": "Easley", "NAME": "SC Works Center Easley", "Zip": "29642", "LONGITUDE": -82.527968, "State": "SC", "LATITUDE": 34.811952, "TYPE": "Affiliate Job Center", "Street_Address": "1774 Powdersville Road"}, {"City": "Lancaster", "NAME": "Lancaster Workforce Center", "Zip": "29721", "LONGITUDE": -80.773246, "State": "SC", "LATITUDE": 34.729128, "TYPE": "Affiliate Job Center", "Street_Address": "705 North White Street, PO Box 1779"}, {"City": "Hartsville", "NAME": "SC Works Hartsville", "Zip": "29550", "LONGITUDE": -80.05755, "State": "SC", "LATITUDE": 34.354598, "TYPE": "Affiliate Job Center", "Street_Address": "1319 South Fourth Street, P.O. Drawer 1170 (29551)"}, {"City": "Bennettsville", "NAME": "SC Works Bennettsville", "Zip": "29512", "LONGITUDE": -79.7254, "State": "SC", "LATITUDE": 34.665, "TYPE": "Affiliate Job Center", "Street_Address": "460 Highway 9 West, P.O. Drawer 798"}, {"City": "Allendale", "NAME": "Allendale Workforce Center", "Zip": "29810", "LONGITUDE": -81.309551, "State": "SC", "LATITUDE": 33.016044, "TYPE": "Affiliate Job Center", "Street_Address": "398 Barnwell Highway, P.O. Box 356"}, {"City": "Lexington", "NAME": "Lexington SC Works Center", "Zip": "29072", "LONGITUDE": -81.252633, "State": "SC", "LATITUDE": 33.978484, "TYPE": "Affiliate Job Center", "Street_Address": "201 Duffie Drive"}, {"City": "Newberry", "NAME": "Newberry One-Stop Workforce Center", "Zip": "29108", "LONGITUDE": -81.623909, "State": "SC", "LATITUDE": 34.271933, "TYPE": "Affiliate Job Center", "Street_Address": "833 Main Street, P.O. Box 498"}, {"City": "Dillon", "NAME": "SC Works Dillon", "Zip": "29536", "LONGITUDE": -79.370147, "State": "SC", "LATITUDE": 34.419838, "TYPE": "Affiliate Job Center", "Street_Address": "106 West Washington Street"}, {"City": "Winnsboro", "NAME": "Winnsboro One Stop Workforce Center", "Zip": "29180", "LONGITUDE": -81.084611, "State": "SC", "LATITUDE": 34.37455, "TYPE": "Affiliate Job Center", "Street_Address": "414A S Congress St., P.O. Box 859"}, {"City": "Moncks Corner", "NAME": "SC Works Berkeley", "Zip": "29461", "LONGITUDE": -80.0304, "State": "SC", "LATITUDE": 33.097, "TYPE": "Affiliate Job Center", "Street_Address": "100 South Highway 52"}, {"City": "Clinton", "NAME": "SC Works", "Zip": "29325", "LONGITUDE": -81.911473, "State": "SC", "LATITUDE": 34.470409, "TYPE": "Affiliate Job Center", "Street_Address": "18 Hazel Drive, P.O. Box 485"}, {"City": "Marion", "NAME": "SC Works Marion", "Zip": "29571", "LONGITUDE": -79.397241, "State": "SC", "LATITUDE": 34.194043, "TYPE": "Affiliate Job Center", "Street_Address": "1311 North Main Street"}, {"City": "Charleston", "NAME": "South Carloina Department of Employment and Workforce", "Zip": "29403", "LONGITUDE": -79.959453, "State": "SC", "LATITUDE": 32.788062, "TYPE": "Affiliate Job Center", "Street_Address": "176 Lockwood Drive"}, {"City": "Seneca", "NAME": "SC Works Center Seneca", "Zip": "29672", "LONGITUDE": -82.992077, "State": "SC", "LATITUDE": 34.713337, "TYPE": "Affiliate Job Center", "Street_Address": "104 Vocational Drive"}, {"City": "Spartanburg", "NAME": "Spartanburg ESC Workforce Center", "Zip": "29306", "LONGITUDE": -81.931914, "State": "SC", "LATITUDE": 34.950822, "TYPE": "Affiliate Job Center", "Street_Address": "110 Commerce Street, 145 N. Church Street BTC #88"}, {"City": "Gaffney", "NAME": "Gaffney Workforce Center", "Zip": "29342", "LONGITUDE": -81.680409, "State": "SC", "LATITUDE": 35.070637, "TYPE": "Affiliate Job Center", "Street_Address": "133 Wilmac Road, P.O. Box 1270"}, {"City": "Abbeville", "NAME": "Abbeville One-Stop Workforce Center", "Zip": "29620", "LONGITUDE": -82.398278, "State": "SC", "LATITUDE": 34.195781, "TYPE": "Affiliate Job Center", "Street_Address": "353 Highway 28 Bypass, P.O. Box 519"}, {"City": "St. George", "NAME": "St. George Adult Learning Center / Dorchester County Adult Education", "Zip": "29477", "LONGITUDE": -80.585791, "State": "SC", "LATITUDE": 33.185108, "TYPE": "Affiliate Job Center", "Street_Address": "121 South Metts Street"}, {"City": "Union", "NAME": "Union One-Stop Workforce Center", "Zip": "29379", "LONGITUDE": -81.623904, "State": "SC", "LATITUDE": 34.715186, "TYPE": "Affiliate Job Center", "Street_Address": "103 West Main Street, P.O. Box 663"}, {"City": "Rock Hill", "NAME": "York Technical College - Workforce Development Center", "Zip": "29730", "LONGITUDE": -80.99622, "State": "SC", "LATITUDE": 34.934353, "TYPE": "Affiliate Job Center", "Street_Address": "452 South Anderson Road"}, {"City": "Saluda", "NAME": "Saluda County One-Stop Workforce Center", "Zip": "29138", "LONGITUDE": -81.777152, "State": "SC", "LATITUDE": 34.003208, "TYPE": "Affiliate Job Center", "Street_Address": "407 West Butler Avenue"}, {"City": "McCormick", "NAME": "McCormick One-Stop Workforce Center", "Zip": "29835", "LONGITUDE": -82.2939, "State": "SC", "LATITUDE": 33.9112, "TYPE": "Affiliate Job Center", "Street_Address": "109 West Augusta Street"}, {"City": "Edgefield", "NAME": "Edgefield One-Stop Workforce Center", "Zip": "29824", "LONGITUDE": -81.92862, "State": "SC", "LATITUDE": 33.793915, "TYPE": "Affiliate Job Center", "Street_Address": "400 Church Street, Edgefield Neighborhood Center"}, {"City": "Denmark", "NAME": "Bamberg County South Carolina Works", "Zip": "29042", "LONGITUDE": -81.1301, "State": "SC", "LATITUDE": 33.3058, "TYPE": "Affiliate Job Center", "Street_Address": "1239 Solomon Blatt Blvd."}, {"City": "Bishopville", "NAME": "Bishopville Workforce Center", "Zip": "29010", "LONGITUDE": -80.24739, "State": "SC", "LATITUDE": 34.218904, "TYPE": "Affiliate Job Center", "Street_Address": "200 Main Street, Located in Lee County Library"}, {"City": "Camden", "NAME": "Camden Workforce Center", "Zip": "29020", "LONGITUDE": -80.599124, "State": "SC", "LATITUDE": 34.246864, "TYPE": "Affiliate Job Center", "Street_Address": "205 East Dekalb Street, P.O. Box 98 - 29021"}, {"City": "Honea Path", "NAME": "SC Works Center Honea Path", "Zip": "29654", "LONGITUDE": -82.392931, "State": "SC", "LATITUDE": 34.445613, "TYPE": "Affiliate Job Center", "Street_Address": "104 S Main Street"}, {"City": "Summerville", "NAME": "Dorchester One Stop Career Center", "Zip": "29484", "LONGITUDE": -80.184184, "State": "SC", "LATITUDE": 33.033773, "TYPE": "Affiliate Job Center", "Street_Address": "2885 West 5th North Street, PO Box 1868"}, {"City": "Cheraw", "NAME": "Cheraw Workforce Center", "Zip": "29520", "LONGITUDE": -79.883693, "State": "SC", "LATITUDE": 34.701249, "TYPE": "Affiliate Job Center", "Street_Address": "318 Front Street, P.O. Box 877"}, {"City": "Mount Pleasant", "NAME": "East Cooper Community Outreach (ECCO)", "Zip": "29466", "LONGITUDE": -79.815613, "State": "SC", "LATITUDE": 32.840364, "TYPE": "Affiliate Job Center", "Street_Address": "1145 Six Mile Road"}, {"City": "Younges Island", "NAME": "Baptist Hill / Charleston Adult Education", "Zip": "29449", "LONGITUDE": -80.262333, "State": "SC", "LATITUDE": 32.728858, "TYPE": "Affiliate Job Center", "Street_Address": "5117 Baptist Hill Road"}, {"City": "Anderson", "NAME": "SC Works Center Anderson", "Zip": "29625", "LONGITUDE": -82.689806, "State": "SC", "LATITUDE": 34.509207, "TYPE": "Affiliate Job Center", "Street_Address": "511 Michelin Blvd."}, {"City": "Chester", "NAME": "Chester Workforce Center", "Zip": "29706", "LONGITUDE": -81.189953, "State": "SC", "LATITUDE": 34.687227, "TYPE": "Affiliate Job Center", "Street_Address": "764 Wilson Street, P.O. Drawer 520"}, {"City": "Memphis", "NAME": "Memphis Housing Authority Career Center", "Zip": "38105", "LONGITUDE": -90.03718, "State": "TN", "LATITUDE": 35.14438, "TYPE": "Affiliate Job Center", "Street_Address": "700 Adams Avenue"}, {"City": "Bolivar", "NAME": "Tennessee Career Center at Bolivar", "Zip": "38008-2329", "LONGITUDE": -89.008745, "State": "TN", "LATITUDE": 35.250102, "TYPE": "Affiliate Job Center", "Street_Address": "602A Tennessee Street"}, {"City": "Jacksboro", "NAME": "Tennessee Career Center at Jacksboro", "Zip": "37757", "LONGITUDE": -84.192299, "State": "TN", "LATITUDE": 36.325991, "TYPE": "Affiliate Job Center", "Street_Address": "1016 Main Street"}, {"City": "Springfield", "NAME": "Tennessee Career Center at Springfield", "Zip": "37172", "LONGITUDE": -86.883573, "State": "TN", "LATITUDE": 36.504366, "TYPE": "Affiliate Job Center", "Street_Address": "299 10th Ave East"}, {"City": "Dover", "NAME": "Tennessee Career Center at Dover", "Zip": "37058", "LONGITUDE": -87.883615, "State": "TN", "LATITUDE": 36.481126, "TYPE": "Affiliate Job Center", "Street_Address": "1356 Donelson Parkway"}, {"City": "Gallatin", "NAME": "Tennessee Career Center at Gallatin", "Zip": "37066", "LONGITUDE": -86.443928, "State": "TN", "LATITUDE": 36.39106, "TYPE": "Affiliate Job Center", "Street_Address": "175 College Street"}, {"City": "Franklin", "NAME": "Tennessee Career Center at Franklin", "Zip": "37064", "LONGITUDE": -86.866743, "State": "TN", "LATITUDE": 35.895642, "TYPE": "Affiliate Job Center", "Street_Address": "225 Noah Drive, Suite 360"}, {"City": "Memphis", "NAME": "Tennessee Career Center Memphis - Downtown", "Zip": "38105", "LONGITUDE": -90.044982, "State": "TN", "LATITUDE": 35.138918, "TYPE": "Affiliate Job Center", "Street_Address": "480 Beale Street"}, {"City": "Pulaski", "NAME": "Tennessee Career Center at Pulaski", "Zip": "38478", "LONGITUDE": -87.021659, "State": "TN", "LATITUDE": 35.196882, "TYPE": "Affiliate Job Center", "Street_Address": "125 South Cedar Lane"}, {"City": "Oak Ridge", "NAME": "Tennessee Career Center at Oak Ridge", "Zip": "37831-5359", "LONGITUDE": -84.229802, "State": "TN", "LATITUDE": 36.030791, "TYPE": "Affiliate Job Center", "Street_Address": "599 Oak Ridge Turnpike, Suite B"}, {"City": "Decherd", "NAME": "Tennessee Career Center at Decherd", "Zip": "37324", "LONGITUDE": -86.0994, "State": "TN", "LATITUDE": 35.2095, "TYPE": "Affiliate Job Center", "Street_Address": "29 Chattin Boulevard"}, {"City": "Lynchburg", "NAME": "Tennessee Career Center at Lynchburg", "Zip": "37352", "LONGITUDE": -86.382725, "State": "TN", "LATITUDE": 35.277903, "TYPE": "Affiliate Job Center", "Street_Address": "30 Booneville Hwy"}, {"City": "South Pittsburg", "NAME": "Tennessee Career Center at South Pittsburg", "Zip": "37380", "LONGITUDE": -85.692238, "State": "TN", "LATITUDE": 35.044292, "TYPE": "Affiliate Job Center", "Street_Address": "426 Battle Creek Road"}, {"City": "Alamo", "NAME": "Tennessee Career Center at Alamo", "Zip": "38001", "LONGITUDE": -89.11747, "State": "TN", "LATITUDE": 35.780081, "TYPE": "Affiliate Job Center", "Street_Address": "331 South Bells Street"}, {"City": "Tiptonville", "NAME": "Tennessee Career Center at Tiptonville", "Zip": "38079", "LONGITUDE": -89.484826, "State": "TN", "LATITUDE": 36.378364, "TYPE": "Affiliate Job Center", "Street_Address": "217 Church Street"}, {"City": "Parsons", "NAME": "Tennessee Career Center at Parsons", "Zip": "38363", "LONGITUDE": -88.121724, "State": "TN", "LATITUDE": 35.620995, "TYPE": "Affiliate Job Center", "Street_Address": "2039 Hwy 641 South"}, {"City": "Selmer", "NAME": "Tennessee Career Center at Selmer", "Zip": "38375", "LONGITUDE": -88.596702, "State": "TN", "LATITUDE": 35.1522, "TYPE": "Affiliate Job Center", "Street_Address": "701-B Industrial Park Drive"}, {"City": "Henderson", "NAME": "Tennessee Career Center at Henderson", "Zip": "38340", "LONGITUDE": -88.647837, "State": "TN", "LATITUDE": 35.440664, "TYPE": "Affiliate Job Center", "Street_Address": "269 North Church"}, {"City": "Rockwood", "NAME": "Tennessee Career Center at Rockwood", "Zip": "37854", "LONGITUDE": -84.660175, "State": "TN", "LATITUDE": 35.88197, "TYPE": "Affiliate Job Center", "Street_Address": "1082 North Gateway Avenue"}, {"City": "Ripley", "NAME": "Tennessee Career Center at Ripley", "Zip": "38063", "LONGITUDE": -89.543793, "State": "TN", "LATITUDE": 35.74887, "TYPE": "Affiliate Job Center", "Street_Address": "301C Lake Drive"}, {"City": "Waverly", "NAME": "Tennessee Career Center at Waverly", "Zip": "37185", "LONGITUDE": -87.823985, "State": "TN", "LATITUDE": 36.085183, "TYPE": "Affiliate Job Center", "Street_Address": "711 Holly Lane"}, {"City": "Linden", "NAME": "Tennessee Career Center at Linden", "Zip": "37096", "LONGITUDE": -87.842472, "State": "TN", "LATITUDE": 35.616805, "TYPE": "Affiliate Job Center", "Street_Address": "113 Factory Street, Suite 1; P.O. Box 34"}, {"City": "Dickson", "NAME": "Tennessee Career Center at Dickson", "Zip": "37055", "LONGITUDE": -87.383946, "State": "TN", "LATITUDE": 36.063817, "TYPE": "Affiliate Job Center", "Street_Address": "250 Beasley Drive"}, {"City": "Erin", "NAME": "Tennessee Career Center at Erin", "Zip": "37061", "LONGITUDE": -87.696789, "State": "TN", "LATITUDE": 36.316877, "TYPE": "Affiliate Job Center", "Street_Address": "155 West Front Street, P.O. Box 609"}, {"City": "Ashland City", "NAME": "Tennessee Career Center at Ashland City", "Zip": "37015", "LONGITUDE": -87.06485, "State": "TN", "LATITUDE": 36.275401, "TYPE": "Affiliate Job Center", "Street_Address": "202 North Main Street, Unit 4"}, {"City": "Fayetteville", "NAME": "Tennessee Career Center at Fayetteville", "Zip": "37334", "LONGITUDE": -86.554381, "State": "TN", "LATITUDE": 35.156159, "TYPE": "Affiliate Job Center", "Street_Address": "4120 Thornton Taylor Pkwy. Suite F"}, {"City": "Lebanon", "NAME": "Tennessee Career Center of Wilson County in Lebanon", "Zip": "37087", "LONGITUDE": -86.292493, "State": "TN", "LATITUDE": 36.188924, "TYPE": "Affiliate Job Center", "Street_Address": "155 Legends Drive, Suite M"}, {"City": "Lenoir City", "NAME": "Tennessee Career Center at Lenoir City", "Zip": "37771", "LONGITUDE": -84.265849, "State": "TN", "LATITUDE": 35.790979, "TYPE": "Affiliate Job Center", "Street_Address": "100 West Broadway, Suite 141"}, {"City": "McMinnville", "NAME": "Tennessee Career Center at McMinnville", "Zip": "37110", "LONGITUDE": -85.773899, "State": "TN", "LATITUDE": 35.686133, "TYPE": "Affiliate Job Center", "Street_Address": "310 N. Chancery St."}, {"City": "Oneida", "NAME": "Tennesse Career Center at Oneida", "Zip": "37841", "LONGITUDE": -84.530478, "State": "TN", "LATITUDE": 36.503959, "TYPE": "Affiliate Job Center", "Street_Address": "180 Eli Lane"}, {"City": "Shelbyville", "NAME": "Tennessee Career Center Shelbyville", "Zip": "37160-0083", "LONGITUDE": -86.467401, "State": "TN", "LATITUDE": 35.492721, "TYPE": "Affiliate Job Center", "Street_Address": "301 Colloredo Boulevard"}, {"City": "Greeneville", "NAME": "Tennessee Career Center at Greenville", "Zip": "37744-0248", "LONGITUDE": -82.828517, "State": "TN", "LATITUDE": 36.164069, "TYPE": "Affiliate Job Center", "Street_Address": "214 N. College St."}, {"City": "Waynesboro", "NAME": "Tennessee Career Center at Waynesboro", "Zip": "38485", "LONGITUDE": -87.7652, "State": "TN", "LATITUDE": 35.3222, "TYPE": "Affiliate Job Center", "Street_Address": "100 Court Circle, Room 408, Wayne County Courthouse"}, {"City": "Kingsport", "NAME": "Tennessee Career Center at Kingsport", "Zip": "37660", "LONGITUDE": -82.546584, "State": "TN", "LATITUDE": 36.542458, "TYPE": "Affiliate Job Center", "Street_Address": "1140 East Center Street"}, {"City": "Union City", "NAME": "Tennessee Career Center at Union City", "Zip": "38261", "LONGITUDE": -89.058045, "State": "TN", "LATITUDE": 36.425099, "TYPE": "Affiliate Job Center", "Street_Address": "204 S 2nd St."}, {"City": "Vonore", "NAME": "Tennessee Career Center at Vonore", "Zip": "37885", "LONGITUDE": -84.273608, "State": "TN", "LATITUDE": 35.590673, "TYPE": "Affiliate Job Center", "Street_Address": "59B Excellence Way"}, {"City": "Lexington", "NAME": "Tennessee Career Center at Lexington", "Zip": "38351", "LONGITUDE": -88.392946, "State": "TN", "LATITUDE": 35.649893, "TYPE": "Affiliate Job Center", "Street_Address": "17 Monroe Avenue"}, {"City": "Elizabethton", "NAME": "Tennessee Career Center at Elizabethton", "Zip": "37643", "LONGITUDE": -82.17908, "State": "TN", "LATITUDE": 36.366817, "TYPE": "Affiliate Job Center", "Street_Address": "386 Highway 91, P.O. Box 249"}, {"City": "Paris", "NAME": "Tennessee Career Center at Paris", "Zip": "38242", "LONGITUDE": -88.34146, "State": "TN", "LATITUDE": 36.309695, "TYPE": "Affiliate Job Center", "Street_Address": "55 Jones Bend Rd - Extended"}, {"City": "Carthage", "NAME": "Tennessee Career Center-Carthage", "Zip": "37030", "LONGITUDE": -85.9698, "State": "TN", "LATITUDE": 36.2577, "TYPE": "Affiliate Job Center", "Street_Address": "120 Paulene Gore Way, Suite A"}, {"City": "Humboldt", "NAME": "Tennessee Career Center at Humboldt", "Zip": "38343", "LONGITUDE": -88.896368, "State": "TN", "LATITUDE": 35.834756, "TYPE": "Affiliate Job Center", "Street_Address": "1593 Coleman Drive"}, {"City": "Covington", "NAME": "Tennessee Career Center at Covington", "Zip": "38019", "LONGITUDE": -89.643739, "State": "TN", "LATITUDE": 35.576571, "TYPE": "Affiliate Job Center", "Street_Address": "877 - C Highway 51 North"}, {"City": "Dayton", "NAME": "Tennessee Career Center at Dayton", "Zip": "37321", "LONGITUDE": -85.009467, "State": "TN", "LATITUDE": 35.494956, "TYPE": "Affiliate Job Center", "Street_Address": "200 4th Avenue"}, {"City": "Somerville", "NAME": "Tennessee Career Center at Somerville", "Zip": "38068", "LONGITUDE": -89.350533, "State": "TN", "LATITUDE": 35.24379, "TYPE": "Affiliate Job Center", "Street_Address": "121 West Court Square"}, {"City": "Brownsville", "NAME": "Tennessee Career Center at Brownsville", "Zip": "38012", "LONGITUDE": -89.263988, "State": "TN", "LATITUDE": 35.592394, "TYPE": "Affiliate Job Center", "Street_Address": "140 South Wilson"}, {"City": "Cleveland", "NAME": "Tennessee Career Center at Cleveland", "Zip": "37331", "LONGITUDE": -84.884221, "State": "TN", "LATITUDE": 35.160665, "TYPE": "Affiliate Job Center", "Street_Address": "301 Keith Street, Suite 102"}, {"City": "Camden", "NAME": "Tennessee Career Center at Camden", "Zip": "38320", "LONGITUDE": -88.0964, "State": "TN", "LATITUDE": 36.06, "TYPE": "Affiliate Job Center", "Street_Address": "60 North Church Avenue"}, {"City": "Centerville", "NAME": "Tennesse Career Center - Centerville", "Zip": "37033", "LONGITUDE": -87.436119, "State": "TN", "LATITUDE": 35.823296, "TYPE": "Affiliate Job Center", "Street_Address": "130 Progress Center Plaza"}, {"City": "Mountain City", "NAME": "Tennessee Career Center at Mountain City", "Zip": "37683", "LONGITUDE": -81.825129, "State": "TN", "LATITUDE": 36.503559, "TYPE": "Affiliate Job Center", "Street_Address": "358 Hospital Road"}, {"City": "Dresden", "NAME": "Tennessee Career Center - Dresden", "Zip": "38225", "LONGITUDE": -88.708877, "State": "TN", "LATITUDE": 36.290847, "TYPE": "Affiliate Job Center", "Street_Address": "135 South Popler, Suite B"}, {"City": "Lewisburg", "NAME": "Tennessee Career Center at Lewisburg", "Zip": "37091", "LONGITUDE": -86.781444, "State": "TN", "LATITUDE": 35.4324, "TYPE": "Affiliate Job Center", "Street_Address": "980 South Ellington Parkway"}, {"City": "Crosbyton", "NAME": "South Plains Community Action", "Zip": "79322-2548", "LONGITUDE": -101.239322, "State": "TX", "LATITUDE": 33.658477, "TYPE": "Affiliate Job Center", "Street_Address": "224 South Berkshire"}, {"City": "Hearne", "NAME": "WorkForce Solutions - Robertson County", "Zip": "77859-2556", "LONGITUDE": -96.597442, "State": "TX", "LATITUDE": 30.879513, "TYPE": "Affiliate Job Center", "Street_Address": "303 Post Oak Street"}, {"City": "El Paso", "NAME": "Workforce Solutions - Upper Rio Grande", "Zip": "79901-1372", "LONGITUDE": -106.487455, "State": "TX", "LATITUDE": 31.760783, "TYPE": "Affiliate Job Center", "Street_Address": "300 East Main Street"}, {"City": "Crockett", "NAME": "Houston County WorkForce Solutions", "Zip": "75835", "LONGITUDE": -95.4581, "State": "TX", "LATITUDE": 31.3086, "TYPE": "Affiliate Job Center", "Street_Address": "1505 South 4th Street"}, {"City": "Dallas", "NAME": "Dallas MLK Workforce Center", "Zip": "75215", "LONGITUDE": -96.766904, "State": "TX", "LATITUDE": 32.770354, "TYPE": "Affiliate Job Center", "Street_Address": "2922 Martin Luther King Jr. Blvd, Suite 104"}, {"City": "Fort Worth", "NAME": "Alliance Opportunity Center", "Zip": "76177-4318", "LONGITUDE": -97.312003, "State": "TX", "LATITUDE": 32.983182, "TYPE": "Affiliate Job Center", "Street_Address": "13825 Aviator Way"}, {"City": "Hondo", "NAME": "WorkForceSolutions Alamo Hondo", "Zip": "78861-1775", "LONGITUDE": -99.136453, "State": "TX", "LATITUDE": 29.348606, "TYPE": "Affiliate Job Center", "Street_Address": "740 18th Street"}, {"City": "San Antonio", "NAME": "WorkForce Solutions Alamo VA Benefits", "Zip": "78240-3900", "LONGITUDE": -98.597507, "State": "TX", "LATITUDE": 29.516402, "TYPE": "Affiliate Job Center", "Street_Address": "5788 Eckert Rd."}, {"City": "Wharton", "NAME": "Workforce Solutions - Wharton", "Zip": "77488", "LONGITUDE": -96.08531, "State": "TX", "LATITUDE": 29.320249, "TYPE": "Affiliate Job Center", "Street_Address": "1506 North Alabama Road, Suite C"}, {"City": "Littlefield", "NAME": "Workforce Solutions", "Zip": "79339", "LONGITUDE": -102.327453, "State": "TX", "LATITUDE": 33.903198, "TYPE": "Affiliate Job Center", "Street_Address": "2401 Hall Avenue, Suite B"}, {"City": "Wichita Falls", "NAME": "Workforce Solutions North Texas Child Care SVC", "Zip": "76302", "LONGITUDE": -98.494336, "State": "TX", "LATITUDE": 33.868642, "TYPE": "Affiliate Job Center", "Street_Address": "4309 Old Jacksboro Highway, Suite 230"}, {"City": "Beaumont", "NAME": "Workforce Solutions Southeast Texas", "Zip": "77701-2248", "LONGITUDE": -94.099817, "State": "TX", "LATITUDE": 30.084626, "TYPE": "Affiliate Job Center", "Street_Address": "304 Pearl Street"}, {"City": "Fort Stockton", "NAME": "Workforce Solutions Permian Basin", "Zip": "79735-5620", "LONGITUDE": -102.879, "State": "TX", "LATITUDE": 30.8877, "TYPE": "Affiliate Job Center", "Street_Address": "461 South Hwy 285, Suite 104"}, {"City": "Raymondville", "NAME": "Workforce Solutions - Raymondville", "Zip": "78580-4000", "LONGITUDE": -97.774885, "State": "TX", "LATITUDE": 26.46691, "TYPE": "Affiliate Job Center", "Street_Address": "700 FM 3168, Suite 3"}, {"City": "Waller", "NAME": "WORKFORCE SOLUTIONS - WALLER", "Zip": "77484", "LONGITUDE": -95.92845, "State": "TX", "LATITUDE": 30.070288, "TYPE": "Affiliate Job Center", "Street_Address": "40644 Business Highway 290, P.O. Box 1340"}, {"City": "Bandera", "NAME": "Workforce Solutions Alamo - Bandera", "Zip": "78003", "LONGITUDE": -99.066724, "State": "TX", "LATITUDE": 29.731948, "TYPE": "Affiliate Job Center", "Street_Address": "702 Buck Creek, PO Box 817"}, {"City": "Boerne", "NAME": "Workforce Solutions Alamos - Boerne", "Zip": "78006", "LONGITUDE": -98.715903, "State": "TX", "LATITUDE": 29.797316, "TYPE": "Affiliate Job Center", "Street_Address": "1415 E Blanco, Suite 10A"}, {"City": "Kenedy", "NAME": "WorkForceSolutions Alamo Kenedy", "Zip": "78119-2051", "LONGITUDE": -97.858816, "State": "TX", "LATITUDE": 28.819193, "TYPE": "Affiliate Job Center", "Street_Address": "491 North Sunset Strip, Suite 107"}, {"City": "Floresville", "NAME": "WorkForceSolutions Alamo Floresville", "Zip": "78114-2110", "LONGITUDE": -98.153831, "State": "TX", "LATITUDE": 29.14256, "TYPE": "Affiliate Job Center", "Street_Address": "1106 10th Street, Suite C, on Hwy 181 (aka 10th st)"}, {"City": "Hillsboro", "NAME": "WorkForce Solutions for the Heart of Texas - Hill County", "Zip": "76645-3322", "LONGITUDE": -97.126315, "State": "TX", "LATITUDE": 32.010741, "TYPE": "Affiliate Job Center", "Street_Address": "233 East Elm Street"}, {"City": "Fredericksburg", "NAME": "WorkforceSolutions Alamo Fredericksburg", "Zip": "78624-5054", "LONGITUDE": -98.882679, "State": "TX", "LATITUDE": 30.254383, "TYPE": "Affiliate Job Center", "Street_Address": "221 Friendship Lane"}, {"City": "Bonham", "NAME": "Workforce Solutions Texoma", "Zip": "75418", "LONGITUDE": -96.1884, "State": "TX", "LATITUDE": 33.5754, "TYPE": "Affiliate Job Center", "Street_Address": "1205 B East Sam Rayburn Drive"}, {"City": "Columbus", "NAME": "Workforce Solutions - Columbus", "Zip": "78934", "LONGITUDE": -96.5736, "State": "TX", "LATITUDE": 29.7276, "TYPE": "Affiliate Job Center", "Street_Address": "104 B Shult Drive"}, {"City": "Pearsall", "NAME": "WorkforceSolutions Alamo Pearsall", "Zip": "78061-4453", "LONGITUDE": -99.085276, "State": "TX", "LATITUDE": 28.89691, "TYPE": "Affiliate Job Center", "Street_Address": "107 East Hackberry Street"}, {"City": "Mission", "NAME": "Workforce Solutions - West Hidalgo", "Zip": "78572", "LONGITUDE": -98.30694, "State": "TX", "LATITUDE": 26.196169, "TYPE": "Affiliate Job Center", "Street_Address": "901 West Travis, Suite 7"}, {"City": "Ft. Bliss", "NAME": "Workforce Solutions - Upper Rio Grande", "Zip": "79906", "LONGITUDE": -106.4197, "State": "TX", "LATITUDE": 31.8099, "TYPE": "Affiliate Job Center", "Street_Address": "Bldg. 2494 Ricker Road"}, {"City": "Presidio", "NAME": "WorkForce Solutions", "Zip": "79845", "LONGITUDE": -104.2171, "State": "TX", "LATITUDE": 29.615, "TYPE": "Affiliate Job Center", "Street_Address": "701 Market Street, Unit 6-B"}, {"City": "Floydada", "NAME": "South Plains Community Action", "Zip": "79235", "LONGITUDE": -101.332148, "State": "TX", "LATITUDE": 33.988865, "TYPE": "Affiliate Job Center", "Street_Address": "701 E. Lee Street, PO Box 741"}, {"City": "Snyder", "NAME": "WorkForce Solutions-Snyder", "Zip": "79549", "LONGITUDE": -100.919377, "State": "TX", "LATITUDE": 32.704805, "TYPE": "Affiliate Job Center", "Street_Address": "1912 37th Street"}, {"City": "Gilmer", "NAME": "WorkForce Solutions East Texas", "Zip": "75644-5724", "LONGITUDE": -94.941484, "State": "TX", "LATITUDE": 32.728726, "TYPE": "Affiliate Job Center", "Street_Address": "405 East Marshall"}, {"City": "Emory", "NAME": "WorkForce Solutions of East Texas", "Zip": "75440", "LONGITUDE": -95.764522, "State": "TX", "LATITUDE": 32.873992, "TYPE": "Affiliate Job Center", "Street_Address": "209 E Quitman St., P.O. Box 1089"}, {"City": "Canton", "NAME": "WorkForce Solutions East Texas", "Zip": "75103-9772", "LONGITUDE": -95.855494, "State": "TX", "LATITUDE": 32.574207, "TYPE": "Affiliate Job Center", "Street_Address": "1760 N Trade Days Blvd, P.O. Box 367"}, {"City": "Fabens", "NAME": "WorkForce Solutions", "Zip": "79838", "LONGITUDE": -106.158, "State": "TX", "LATITUDE": 31.5022, "TYPE": "Affiliate Job Center", "Street_Address": "600 Northeast 4th Street, P.O. Box 4080"}, {"City": "La Grange", "NAME": "WorkForce Solutions - Rural Capital Area", "Zip": "78945-2314", "LONGITUDE": -96.869302, "State": "TX", "LATITUDE": 29.909427, "TYPE": "Affiliate Job Center", "Street_Address": "811 East Travis Street"}, {"City": "Marlin", "NAME": "WorkForce Solutions for the Heart of Texas - Falls County", "Zip": "76661-2854", "LONGITUDE": -96.897193, "State": "TX", "LATITUDE": 31.307392, "TYPE": "Affiliate Job Center", "Street_Address": "230 Coleman Street"}, {"City": "Lampasas", "NAME": "WorkForce Solutions", "Zip": "76550-3515", "LONGITUDE": -98.179236, "State": "TX", "LATITUDE": 31.057271, "TYPE": "Affiliate Job Center", "Street_Address": "1305 S Key Ave., #102"}, {"City": "Madisonville", "NAME": "WorkForce Solutions-Madison County", "Zip": "77864-3280", "LONGITUDE": -95.917985, "State": "TX", "LATITUDE": 30.953925, "TYPE": "Affiliate Job Center", "Street_Address": "300 West School Road, Suite 200"}, {"City": "Navasota", "NAME": "WorkForce Solutions-Navasota", "Zip": "77868", "LONGITUDE": -96.080487, "State": "TX", "LATITUDE": 30.400688, "TYPE": "Affiliate Job Center", "Street_Address": "1604 Stacey Street, Room 7"}, {"City": "Burnet", "NAME": "WorkForce Solutions - Rural Capital Area", "Zip": "78611-2324", "LONGITUDE": -98.241154, "State": "TX", "LATITUDE": 30.759038, "TYPE": "Affiliate Job Center", "Street_Address": "1001 West Buchanan Drive, Suite 1"}, {"City": "Rockdale", "NAME": "WorkForce Solutions of Central Texas - Rockdale", "Zip": "76567-2908", "LONGITUDE": -97.001942, "State": "TX", "LATITUDE": 30.656704, "TYPE": "Affiliate Job Center", "Street_Address": "313 North Main Street"}, {"City": "Refugio", "NAME": "WorkForce Solutions", "Zip": "78377-2601", "LONGITUDE": -97.248, "State": "TX", "LATITUDE": 28.341, "TYPE": "Affiliate Job Center", "Street_Address": "414 - B North Alamo"}, {"City": "Llano", "NAME": "WorkForce Solutions - Rural Capital Area", "Zip": "78643-1931", "LONGITUDE": -98.676199, "State": "TX", "LATITUDE": 30.750349, "TYPE": "Affiliate Job Center", "Street_Address": "119 West Main Street, P.O. Box 29"}, {"City": "Garland", "NAME": "Garland Day Labor Center", "Zip": "74041-1641", "LONGITUDE": -96.648316, "State": "TX", "LATITUDE": 32.894126, "TYPE": "Affiliate Job Center", "Street_Address": "2007 Saturn Road"}, {"City": "Teague", "NAME": "WorkForce Solutions for the Heart of Texas - Freestone County", "Zip": "75860-1625", "LONGITUDE": -96.282606, "State": "TX", "LATITUDE": 31.62696, "TYPE": "Affiliate Job Center", "Street_Address": "517 Main St."}, {"City": "Centerville", "NAME": "WorkForce Solutions-Leon County", "Zip": "75833", "LONGITUDE": -95.977887, "State": "TX", "LATITUDE": 31.257995, "TYPE": "Affiliate Job Center", "Street_Address": "204 East Street Mary`s Street, P.O. Box 566"}, {"City": "Sealy", "NAME": "Workforce Solutions-Sealy", "Zip": "77474", "LONGITUDE": -96.1413, "State": "TX", "LATITUDE": 29.7676, "TYPE": "Affiliate Job Center", "Street_Address": "3701 Outlet Center Drive, Suite 140"}, {"City": "Brenham", "NAME": "WorkForce Solutions Washington County", "Zip": "77833-5714", "LONGITUDE": -96.3996, "State": "TX", "LATITUDE": 30.1831, "TYPE": "Affiliate Job Center", "Street_Address": "97 Duprie Drive"}, {"City": "Alpine", "NAME": "WorkForce Solutions", "Zip": "79830", "LONGITUDE": -103.665782, "State": "TX", "LATITUDE": 30.357369, "TYPE": "Affiliate Job Center", "Street_Address": "500 West Ave., H #8 Room 108"}, {"City": "Rockport", "NAME": "Worksource@Coastal Bin / Rockport Satellite Office", "Zip": "78382", "LONGITUDE": -97.053465, "State": "TX", "LATITUDE": 28.029987, "TYPE": "Affiliate Job Center", "Street_Address": "803 East Orleans St, Room A4"}, {"City": "Wichita Falls", "NAME": "WorkForce Solutions N Texas Mobile Unit", "Zip": "76302-2700", "LONGITUDE": -98.494336, "State": "TX", "LATITUDE": 33.868642, "TYPE": "Affiliate Job Center", "Street_Address": "4309 Jacksboro Highway, Suite 300E"}, {"City": "Bowie", "NAME": "WorkForce Solutions", "Zip": "76230-3603", "LONGITUDE": -97.841676, "State": "TX", "LATITUDE": 33.56474, "TYPE": "Affiliate Job Center", "Street_Address": "800 Highway 59 North, Suite A"}, {"City": "Quitman", "NAME": "WorkForce Solutions East Texas", "Zip": "75783", "LONGITUDE": -95.450785, "State": "TX", "LATITUDE": 32.79305, "TYPE": "Affiliate Job Center", "Street_Address": "405 South Hart Street, Dogwood Plaza (P.O. Box 719)"}, {"City": "Pittsburg", "NAME": "WorkForce Solutions East Texas", "Zip": "75686-1315", "LONGITUDE": -94.970601, "State": "TX", "LATITUDE": 32.994596, "TYPE": "Affiliate Job Center", "Street_Address": "211 Mill Street, P.O. Box 158"}, {"City": "Jefferson", "NAME": "Jefferson Workforce Center", "Zip": "75657", "LONGITUDE": -94.344455, "State": "TX", "LATITUDE": 32.758183, "TYPE": "Affiliate Job Center", "Street_Address": "208 N. Walnut St."}, {"City": "Gainesville", "NAME": "Workforce Solutions Texoma", "Zip": "76240-3522", "LONGITUDE": -97.133301, "State": "TX", "LATITUDE": 33.633642, "TYPE": "Affiliate Job Center", "Street_Address": "900 North Grand Avenue, Suite 103"}, {"City": "Hebbronville", "NAME": "Texas Workforce Center", "Zip": "78361", "LONGITUDE": -98.6852, "State": "TX", "LATITUDE": 27.313, "TYPE": "Affiliate Job Center", "Street_Address": "1310 West Viggie Street"}, {"City": "Caldwell", "NAME": "WorkForce Solutions - Burleson County", "Zip": "77836-1565", "LONGITUDE": -96.6931, "State": "TX", "LATITUDE": 30.532566, "TYPE": "Affiliate Job Center", "Street_Address": "119 South Main Street, Suite C"}, {"City": "Taylor", "NAME": "Workforce Solutions - Rural Capital Area", "Zip": "76574", "LONGITUDE": -97.409757, "State": "TX", "LATITUDE": 30.571798, "TYPE": "Affiliate Job Center", "Street_Address": "516 North Main Street, Room 106"}, {"City": "Warrenton", "NAME": "The Workplace Career Resource Center", "Zip": "20186", "LONGITUDE": -77.809524, "State": "VA", "LATITUDE": 38.714466, "TYPE": "Affiliate Job Center", "Street_Address": "320 Hospital Drive, Suite 11"}, {"City": "Portsmouth", "NAME": "VEC - Portsmouth", "Zip": "23702", "LONGITUDE": -76.326335, "State": "VA", "LATITUDE": 36.796984, "TYPE": "Affiliate Job Center", "Street_Address": "4824 George Washington Highway"}, {"City": "Abingdon", "NAME": "People Inc. of  Virginia", "Zip": "24210", "LONGITUDE": -82.012976, "State": "VA", "LATITUDE": 36.697507, "TYPE": "Affiliate Job Center", "Street_Address": "1173 West Main Street"}, {"City": "Culpeper", "NAME": "Culpeper Career Resource Center", "Zip": "22701", "LONGITUDE": -77.995119, "State": "VA", "LATITUDE": 38.471005, "TYPE": "Affiliate Job Center", "Street_Address": "210 East Stevens Street, Suite 300"}, {"City": "Henrico", "NAME": "Resource Workforce - Cedar Fork", "Zip": "23223", "LONGITUDE": -77.364315, "State": "VA", "LATITUDE": 37.548951, "TYPE": "Affiliate Job Center", "Street_Address": "121 Cedar Fork"}, {"City": "Stuart", "NAME": "Workforce Career Center - Patrick County Adult Ed.", "Zip": "24171", "LONGITUDE": -80.270914, "State": "VA", "LATITUDE": 36.643369, "TYPE": "Affiliate Job Center", "Street_Address": "103 West Blue Ridge, P.O. Box 1412"}, {"City": "Charlottesville", "NAME": "Albemarle Career Center", "Zip": "22902", "LONGITUDE": -78.517843, "State": "VA", "LATITUDE": 38.005973, "TYPE": "Affiliate Job Center", "Street_Address": "1600 5th Street, Suite A, P.O. Box 297"}, {"City": "Luray", "NAME": "Work Force Job Center", "Zip": "22835", "LONGITUDE": -78.436366, "State": "VA", "LATITUDE": 38.6687, "TYPE": "Affiliate Job Center", "Street_Address": "1230 East Main Street"}, {"City": "Narrows", "NAME": "Giles County Partnership for Excellence Foundation", "Zip": "24124", "LONGITUDE": -80.809932, "State": "VA", "LATITUDE": 37.330448, "TYPE": "Affiliate Job Center", "Street_Address": "211 Main Street, Suite 101; Box 219, Glen Lynn, VA 24093"}, {"City": "Bristol", "NAME": "People Incorporated of  Virginia - Bristol", "Zip": "24201", "LONGITUDE": -82.1786, "State": "VA", "LATITUDE": 36.5986, "TYPE": "Affiliate Job Center", "Street_Address": "800 Martin Luther King Jr. Blvd."}, {"City": "Alexandria", "NAME": "Alexandria Workforce Center - VEC", "Zip": "22312-2319", "LONGITUDE": -77.16707, "State": "VA", "LATITUDE": 38.805149, "TYPE": "Affiliate Job Center", "Street_Address": "5520 Cherokee Avenue, Suite 100"}, {"City": "Norfolk", "NAME": "VEC - Norfolk-Virginia Beach Area Office", "Zip": "23502", "LONGITUDE": -76.224208, "State": "VA", "LATITUDE": 36.856149, "TYPE": "Affiliate Job Center", "Street_Address": "5145 East Virginia Beach Boulevard"}, {"City": "Chatham", "NAME": "Virginia Workforce Career Center", "Zip": "24531", "LONGITUDE": -79.393973, "State": "VA", "LATITUDE": 36.793071, "TYPE": "Affiliate Job Center", "Street_Address": "13995 U.S. Highway 29, Suite 400"}, {"City": "Petersburg", "NAME": "Virginia Workforce Center", "Zip": "23803", "LONGITUDE": -77.405223, "State": "VA", "LATITUDE": 37.228999, "TYPE": "Affiliate Job Center", "Street_Address": "114 North Union Street"}, {"City": "Onley", "NAME": "Eastern Shore Workforce Center", "Zip": "23418", "LONGITUDE": -75.712433, "State": "VA", "LATITUDE": 37.701038, "TYPE": "Affiliate Job Center", "Street_Address": "25036 Lankford Highway, Unit 16; Chesapeake Square Shopping Center, P. O. Box 9"}, {"City": "Martinsville", "NAME": "Virginia Workforce Center", "Zip": "24112", "LONGITUDE": -79.88034, "State": "VA", "LATITUDE": 36.696937, "TYPE": "Affiliate Job Center", "Street_Address": "233 W Commonwealth Blvd"}, {"City": "Staunton", "NAME": "Fishersville VEC Field Office", "Zip": "24401", "LONGITUDE": -79.005405, "State": "VA", "LATITUDE": 38.112104, "TYPE": "Affiliate Job Center", "Street_Address": "1076 Jefferson Highway"}, {"City": "Franklin", "NAME": "Workforce Development Center - Paul D. Camp Community College", "Zip": "23851", "LONGITUDE": -76.938678, "State": "VA", "LATITUDE": 36.672829, "TYPE": "Affiliate Job Center", "Street_Address": "100 North College Drive, Room 214"}, {"City": "Madison", "NAME": "Madison Department of Social Services", "Zip": "22727", "LONGITUDE": -78.257891, "State": "VA", "LATITUDE": 38.379862, "TYPE": "Affiliate Job Center", "Street_Address": "101 South Main Street, P. O. Box 176"}, {"City": "Leesburg", "NAME": "Loudoun Workforce Resource Center", "Zip": "20176", "LONGITUDE": -77.54168, "State": "VA", "LATITUDE": 39.11438, "TYPE": "Affiliate Job Center", "Street_Address": "102 Heritage Way, North East, 1st Floor Rear Entrance"}, {"City": "Christiansted", "NAME": "St. Croix One Stop Center", "Zip": "00820", "LONGITUDE": -64.74242, "State": "VI", "LATITUDE": 17.732347, "TYPE": "Affiliate Job Center", "Street_Address": "4KA Sion Farm"}, {"City": "St. Thomas", "NAME": "St. Thomas One Stop Center", "Zip": "00803", "LONGITUDE": -64.9372, "State": "VI", "LATITUDE": 18.3407, "TYPE": "Affiliate Job Center", "Street_Address": "2353 Kronprindsens Gade, P.O. Box 302608"}, {"City": "Seattle", "NAME": "WorkSource Affiliate North Seattle - Serving King County", "Zip": "98103", "LONGITUDE": -122.334918, "State": "WA", "LATITUDE": 47.699646, "TYPE": "Affiliate Job Center", "Street_Address": "9600 College Way North, Opportunity Center for Employment & Education"}, {"City": "Stevenson", "NAME": "WorkSource Stevenson Affiliate-WorkSource Affiliate Serving Skamania County", "Zip": "98648", "LONGITUDE": -121.898367, "State": "WA", "LATITUDE": 45.691155, "TYPE": "Affiliate Job Center", "Street_Address": "704 South West Rock Creek Drive"}, {"City": "Walla Walla", "NAME": "WorkSource Walla Walla Affiliate Site At Walla Walla Community College", "Zip": "99362", "LONGITUDE": -118.283646, "State": "WA", "LATITUDE": 46.077426, "TYPE": "Affiliate Job Center", "Street_Address": "500 Tausick Way"}, {"City": "Spokane", "NAME": "Next Generation Zone", "Zip": "99202", "LONGITUDE": -117.397654, "State": "WA", "LATITUDE": 47.654652, "TYPE": "Affiliate Job Center", "Street_Address": "901 East Second Avenue, Suite 100"}, {"City": "Spokane", "NAME": "Goodwill Industries-WorkSource Affiliate Serving Spokane County", "Zip": "99202", "LONGITUDE": -117.409229, "State": "WA", "LATITUDE": 47.653484, "TYPE": "Affiliate Job Center", "Street_Address": "130 East Third Avenue"}, {"City": "Spokane", "NAME": "Career Path Services at WorkSource Spokane-WorkSource Affiliate Serving Spokane County", "Zip": "99202", "LONGITUDE": -117.395334, "State": "WA", "LATITUDE": 47.655326, "TYPE": "Affiliate Job Center", "Street_Address": "130 South Arthur"}, {"City": "Everett", "NAME": "WorkSource Youth Center-WorkSource Affiliate Serving Snohomish County", "Zip": "98201", "LONGITUDE": -122.19828, "State": "WA", "LATITUDE": 47.975461, "TYPE": "Affiliate Job Center", "Street_Address": "3201 Smith Ave, Suite 200"}, {"City": "Tacoma", "NAME": "Bates Technical College-WorkSource Affiliate Serving Pierce County", "Zip": "98405", "LONGITUDE": -122.447277, "State": "WA", "LATITUDE": 47.252382, "TYPE": "Affiliate Job Center", "Street_Address": "1101 South Yakima Avenue"}, {"City": "Lakewood", "NAME": "Clover Park Technical College-WorkSource Affiliate Serving Pierce County", "Zip": "98499", "LONGITUDE": -122.497226, "State": "WA", "LATITUDE": 47.176407, "TYPE": "Affiliate Job Center", "Street_Address": "4500 Steilacoom Boulevard SW, Building 17"}, {"City": "Lakewood", "NAME": "Pierce College Fort Steilacoom - WorkSource Affiliate Serving Pierce County", "Zip": "98498-1999", "LONGITUDE": -122.574194, "State": "WA", "LATITUDE": 47.172515, "TYPE": "Affiliate Job Center", "Street_Address": "9401 Farwest Drive South West"}, {"City": "Sumner", "NAME": "Vadis-WorkSource Affiliate Serving Pierce County", "Zip": "98390", "LONGITUDE": -122.233166, "State": "WA", "LATITUDE": 47.210241, "TYPE": "Affiliate Job Center", "Street_Address": "1701 Elm Street"}, {"City": "Tacoma", "NAME": "Goodwill IndustriesTacoma-WorkSource Affiliate Serving Pierce County", "Zip": "98409", "LONGITUDE": -122.442685, "State": "WA", "LATITUDE": 47.23607, "TYPE": "Affiliate Job Center", "Street_Address": "714 South 27th Street"}, {"City": "Goldendale", "NAME": "WorkSource Goldendale Affiliate-WorkSource Affiliate Serving Klickitat County", "Zip": "98620", "LONGITUDE": -120.822274, "State": "WA", "LATITUDE": 45.822248, "TYPE": "Affiliate Job Center", "Street_Address": "116 East Main Street"}, {"City": "Port Hadlock", "NAME": "WorkSource Jefferson County Affiliate-WorkSource Affiliate Serving Jefferson County", "Zip": "98339", "LONGITUDE": -122.780927, "State": "WA", "LATITUDE": 48.040273, "TYPE": "Affiliate Job Center", "Street_Address": "207 West Patison"}, {"City": "Walla Walla", "NAME": "Blue Mountain Action Council", "Zip": "99362", "LONGITUDE": -118.3551, "State": "WA", "LATITUDE": 46.0469, "TYPE": "Affiliate Job Center", "Street_Address": "1520 Kelly Place, Suite 140"}, {"City": "Bellevue", "NAME": "WorkSource Connection Bellevue College-WorkSource Connection Serving King County", "Zip": "98007", "LONGITUDE": -122.142923, "State": "WA", "LATITUDE": 47.586362, "TYPE": "Affiliate Job Center", "Street_Address": "3000 Landerholm Circle SE, Bldg. #B131"}, {"City": "Seattle", "NAME": "WorkSource Affiliate South Seattle Community College-WorkSource Affiliate Serving King County", "Zip": "98106", "LONGITUDE": -122.354661, "State": "WA", "LATITUDE": 47.548227, "TYPE": "Affiliate Job Center", "Street_Address": "6000 16th Avenue South West, Robert Smith Building 79 (Mail Stop 4RS79)"}, {"City": "Seattle", "NAME": "WorkSource Affiliate Downtown Seattle-WorkSource Affiliate Serving King County", "Zip": "98121", "LONGITUDE": -122.3412, "State": "WA", "LATITUDE": 47.612639, "TYPE": "Affiliate Job Center", "Street_Address": "2024 3rd Avenue"}, {"City": "Lakewood", "NAME": "WorkSource Lakewood Affiliate-WorkSource Affiliate Serving Pierce County", "Zip": "98499", "LONGITUDE": -122.514661, "State": "WA", "LATITUDE": 47.161827, "TYPE": "Affiliate Job Center", "Street_Address": "5712 Main Street SW, Suite 200"}, {"City": "Pullman", "NAME": "Pullman WorkSource Affiliate-WorkSource Affiliate Serving Whitman, Asotin and Garfield Counties.", "Zip": "99163", "LONGITUDE": -117.1812, "State": "WA", "LATITUDE": 46.7127, "TYPE": "Affiliate Job Center", "Street_Address": "350 SE Fairmont Road, Suite 2"}, {"City": "Spokane", "NAME": "Spokane Community College-WorkSource Affiliate Serving Spokane County", "Zip": "99217", "LONGITUDE": -117.363609, "State": "WA", "LATITUDE": 47.674725, "TYPE": "Affiliate Job Center", "Street_Address": "1810 North Green Street, Bldg. 6; Mail Stop 2063"}, {"City": "Seattle", "NAME": "WorkSource Affiliate Rainier-WorkSource Affiliate Serving King County", "Zip": "98144-5328", "LONGITUDE": -122.299867, "State": "WA", "LATITUDE": 47.580496, "TYPE": "Affiliate Job Center", "Street_Address": "2531 Rainier Avenue South"}, {"City": "Tacoma", "NAME": "Tacoma Community House-WorkSource Affiliate Serving Pierce County", "Zip": "98405", "LONGITUDE": -122.452715, "State": "WA", "LATITUDE": 47.249577, "TYPE": "Affiliate Job Center", "Street_Address": "1314 South L Street, PO Box 5107"}, {"City": "Toppenish", "NAME": "Toppenish Affiliate-WorkSource Affiliate Serving Yakima County", "Zip": "98948", "LONGITUDE": -120.320346, "State": "WA", "LATITUDE": 46.377329, "TYPE": "Affiliate Job Center", "Street_Address": "706 Rentschler Lane, PO Box 831"}, {"City": "Port Orchard", "NAME": "Kitsap Community Resources", "Zip": "98366", "LONGITUDE": -122.5978, "State": "WA", "LATITUDE": 47.5314, "TYPE": "Affiliate Job Center", "Street_Address": "3200 SE Rainshadow Court"}, {"City": "Newport", "NAME": "Rural Resources Newport-WorkSource Affiliate Serving Pend Oreille County", "Zip": "99156", "LONGITUDE": -117.055065, "State": "WA", "LATITUDE": 48.182797, "TYPE": "Affiliate Job Center", "Street_Address": "301 Spruce Avenue, Suite D"}, {"City": "Long Beach", "NAME": "WorkSource Affiliate - Long Beach", "Zip": "98631", "LONGITUDE": -124.053519, "State": "WA", "LATITUDE": 46.370989, "TYPE": "Affiliate Job Center", "Street_Address": "2601 Pacific Avenue North"}, {"City": "Raymond", "NAME": "WorkSource Affiliate Pacific County", "Zip": "98577", "LONGITUDE": -123.740493, "State": "WA", "LATITUDE": 46.67739, "TYPE": "Affiliate Job Center", "Street_Address": "600 Washington Street, Grays Harbor College-Riverview Education Center"}, {"City": "Wenatchee", "NAME": "Wenatchee WorkSource Affiliate-WorkSource Affiliate Serving  Chelan & Douglas Counties", "Zip": "98801", "LONGITUDE": -120.303157, "State": "WA", "LATITUDE": 47.412553, "TYPE": "Affiliate Job Center", "Street_Address": "215 Bridge Street"}, {"City": "Auburn", "NAME": "WorkSource Affiliate Auburn, Serving Seattle-King County", "Zip": "98002", "LONGITUDE": -122.219564, "State": "WA", "LATITUDE": 47.330389, "TYPE": "Affiliate Job Center", "Street_Address": "2707  I Street NE"}, {"City": "Tacoma", "NAME": "Tacoma Housing Authority-WorkSource Affiliate Serving Pierce County", "Zip": "98404", "LONGITUDE": -122.40595, "State": "WA", "LATITUDE": 47.217432, "TYPE": "Affiliate Job Center", "Street_Address": "1724 East 44th Street"}, {"City": "Spooner", "NAME": "NWCEP, Inc. / Spooner Job Center", "Zip": "54801", "LONGITUDE": -91.88257, "State": "WI", "LATITUDE": 45.822201, "TYPE": "Affiliate Job Center", "Street_Address": "522 Service Road"}, {"City": "Menomonie", "NAME": "Dunn County Job Center", "Zip": "54751", "LONGITUDE": -91.891873, "State": "WI", "LATITUDE": 44.879019, "TYPE": "Affiliate Job Center", "Street_Address": "401 Technology Drive East"}, {"City": "Milwaukee", "NAME": "Interfaith Older Adult Programs", "Zip": "53204", "LONGITUDE": -87.918695, "State": "WI", "LATITUDE": 43.026407, "TYPE": "Affiliate Job Center", "Street_Address": "600 W. Virginia St., Suite 300"}, {"City": "Fort Atkinson", "NAME": "WorkSmart Fort Atkinson", "Zip": "53538", "LONGITUDE": -88.855657, "State": "WI", "LATITUDE": 42.939145, "TYPE": "Affiliate Job Center", "Street_Address": "827 Banker Road"}, {"City": "Keshena", "NAME": "Menominee Workforce Development Center", "Zip": "54135", "LONGITUDE": -88.631314, "State": "WI", "LATITUDE": 44.88249, "TYPE": "Affiliate Job Center", "Street_Address": "N172 State Hwy. 47-55"}, {"City": "Sun Prairie", "NAME": "WorkSmart Sun Prairie", "Zip": "53590", "LONGITUDE": -89.240179, "State": "WI", "LATITUDE": 43.178636, "TYPE": "Affiliate Job Center", "Street_Address": "18 Rickel Road"}, {"City": "Portage", "NAME": "WorkSmart Portage", "Zip": "53901", "LONGITUDE": -89.473207, "State": "WI", "LATITUDE": 43.562401, "TYPE": "Affiliate Job Center", "Street_Address": "330 West Collins Street"}, {"City": "Beaver Dam", "NAME": "WorkSmart Beaver Dam-MPTC", "Zip": "53916", "LONGITUDE": -88.81913, "State": "WI", "LATITUDE": 43.460986, "TYPE": "Affiliate Job Center", "Street_Address": "700 Gould Street"}, {"City": "Wisconsin Dells", "NAME": "WorkSmart Wisconsin Dells", "Zip": "53965", "LONGITUDE": -89.799977, "State": "WI", "LATITUDE": 43.624512, "TYPE": "Affiliate Job Center", "Street_Address": "1000 Highway 13, P.O. Box 430"}, {"City": "Madison", "NAME": "WorkSmart Madison-Urban League", "Zip": "53713", "LONGITUDE": -89.394176, "State": "WI", "LATITUDE": 43.041631, "TYPE": "Affiliate Job Center", "Street_Address": "2222 South Park Street, Suite 200"}, {"City": "Waupaca", "NAME": "Waupaca Area Job Center", "Zip": "54981", "LONGITUDE": -89.036285, "State": "WI", "LATITUDE": 44.34787, "TYPE": "Affiliate Job Center", "Street_Address": "1979 Godfrey Drive"}, {"City": "Prairie du Chien", "NAME": "Wisconsin Job Center-Prairie du Chien", "Zip": "53821", "LONGITUDE": -91.137586, "State": "WI", "LATITUDE": 43.052041, "TYPE": "Affiliate Job Center", "Street_Address": "700 E. Blackhawk Ave., Suite 21"}, {"City": "Viroqua", "NAME": "Wisconsin Job Center - Viroqua Workforce Connections Resource Room", "Zip": "54665", "LONGITUDE": -90.889409, "State": "WI", "LATITUDE": 43.55493, "TYPE": "Affiliate Job Center", "Street_Address": "202 S. Main St."}, {"City": "Reedsburg", "NAME": "WorkSmart Reedsburg", "Zip": "53959", "LONGITUDE": -90.025488, "State": "WI", "LATITUDE": 43.53038, "TYPE": "Affiliate Job Center", "Street_Address": "300 Alexander Avenue"}, {"City": "Montello", "NAME": "WorkSmart Montello", "Zip": "53949-0099", "LONGITUDE": -89.34074, "State": "WI", "LATITUDE": 43.795099, "TYPE": "Affiliate Job Center", "Street_Address": "428 Underwood Avenue"}, {"City": "Sturgeon Bay", "NAME": "Door County Job Center", "Zip": "54235", "LONGITUDE": -87.362868, "State": "WI", "LATITUDE": 44.847555, "TYPE": "Affiliate Job Center", "Street_Address": "1300 Egg Harbor Road, Suite 124"}, {"City": "Fennimore", "NAME": "Southwest Wisconsin Job Center", "Zip": "53809", "LONGITUDE": -90.63581, "State": "WI", "LATITUDE": 42.975498, "TYPE": "Affiliate Job Center", "Street_Address": "1800 Bronson Blvd."}, {"City": "Milwaukee", "NAME": "HIRE Center -- dislocated workers", "Zip": "53210", "LONGITUDE": -87.94741, "State": "WI", "LATITUDE": 43.061363, "TYPE": "Affiliate Job Center", "Street_Address": "2338 North 27th Street"}, {"City": "Madison", "NAME": "WorkSmart Madison-Allied", "Zip": "53711", "LONGITUDE": -89.459165, "State": "WI", "LATITUDE": 43.029885, "TYPE": "Affiliate Job Center", "Street_Address": "2225 Allied Drive, #2"}, {"City": "Watertown", "NAME": "WorkSmart Watertown", "Zip": "53098", "LONGITUDE": -88.753959, "State": "WI", "LATITUDE": 43.197761, "TYPE": "Affiliate Job Center", "Street_Address": "1300 West Main Street"}, {"City": "Hayward", "NAME": "Hayward Job Center", "Zip": "54843", "LONGITUDE": -91.3455, "State": "WI", "LATITUDE": 46.0157, "TYPE": "Affiliate Job Center", "Street_Address": "15618 Windrose Lane, Suite 106"}, {"City": "Niagara", "NAME": "Niagara/Florence Job Center", "Zip": "54151", "LONGITUDE": -88.002563, "State": "WI", "LATITUDE": 45.78386, "TYPE": "Affiliate Job Center", "Street_Address": "705 Washington Avenue, PO Box 45"}, {"City": "Park Falls", "NAME": "Park Falls Job Center", "Zip": "54552", "LONGITUDE": -90.451893, "State": "WI", "LATITUDE": 45.92989, "TYPE": "Affiliate Job Center", "Street_Address": "400 South 4th Avenue, City Hall"}, {"City": "Adams", "NAME": "Adams Job Center", "Zip": "53910", "LONGITUDE": -89.817838, "State": "WI", "LATITUDE": 43.963276, "TYPE": "Affiliate Job Center", "Street_Address": "401 North Main Street"}, {"City": "Ashland", "NAME": "Ashland Job Center", "Zip": "54806", "LONGITUDE": -90.886489, "State": "WI", "LATITUDE": 46.588837, "TYPE": "Affiliate Job Center", "Street_Address": "422 Third Street West, Suite 200"}, {"City": "Juneau", "NAME": "WorkSmart Juneau", "Zip": "53039", "LONGITUDE": -88.703432, "State": "WI", "LATITUDE": 43.408102, "TYPE": "Affiliate Job Center", "Street_Address": "143 East Center Street"}, {"City": "Berlin", "NAME": "Berlin Job Center", "Zip": "54923", "LONGITUDE": -88.953449, "State": "WI", "LATITUDE": 43.968374, "TYPE": "Affiliate Job Center", "Street_Address": "237 Broadway Street, Suite C"}, {"City": "Chippewa Falls", "NAME": "Chippewa County Job Center", "Zip": "54729", "LONGITUDE": -91.36868, "State": "WI", "LATITUDE": 44.94624, "TYPE": "Affiliate Job Center", "Street_Address": "770 Scheidler Road, Suite 2"}, {"City": "Durand", "NAME": "Pepin County Job Center", "Zip": "54736", "LONGITUDE": -91.967976, "State": "WI", "LATITUDE": 44.627626, "TYPE": "Affiliate Job Center", "Street_Address": "316 West Madison Street"}, {"City": "Mauston", "NAME": "Wisconsin Job Center-Juneau County", "Zip": "53948", "LONGITUDE": -90.054897, "State": "WI", "LATITUDE": 43.798883, "TYPE": "Affiliate Job Center", "Street_Address": "1000 College Ave."}, {"City": "Madison", "NAME": "WorkSmart Madison-Lussier", "Zip": "53717", "LONGITUDE": -89.502443, "State": "WI", "LATITUDE": 43.066575, "TYPE": "Affiliate Job Center", "Street_Address": "55 South Gammon Road"}, {"City": "Marshfield", "NAME": "Marshfield Job Center", "Zip": "54449", "LONGITUDE": -90.173967, "State": "WI", "LATITUDE": 44.66639, "TYPE": "Affiliate Job Center", "Street_Address": "156 South Central Avenue"}, {"City": "Neillsville", "NAME": "Clark County Job Center", "Zip": "54456", "LONGITUDE": -90.596295, "State": "WI", "LATITUDE": 44.55995, "TYPE": "Affiliate Job Center", "Street_Address": "501 Hewett Street"}, {"City": "Madison", "NAME": "WorkSmart Madison College-South", "Zip": "53713", "LONGITUDE": -89.394177, "State": "WI", "LATITUDE": 43.041507, "TYPE": "Affiliate Job Center", "Street_Address": "2238 South Park Street"}, {"City": "Beaver Dam", "NAME": "WorkSmart Beaver Dam-CWCAC", "Zip": "53916", "LONGITUDE": -88.836982, "State": "WI", "LATITUDE": 43.455053, "TYPE": "Affiliate Job Center", "Street_Address": "134 South Spring Street"}, {"City": "Rhinelander", "NAME": "Northern Advantage Job Center", "Zip": "54501", "LONGITUDE": -89.4016, "State": "WI", "LATITUDE": 45.6468, "TYPE": "Affiliate Job Center", "Street_Address": "51 A North Brown Street"}, {"City": "Wautoma", "NAME": "Waushara County Job Center", "Zip": "54982", "LONGITUDE": -89.286108, "State": "WI", "LATITUDE": 44.074339, "TYPE": "Affiliate Job Center", "Street_Address": "205 East Main Street, Suite 23"}, {"City": "Milwaukee", "NAME": "Spotted Eagle Inc. -- Native American program", "Zip": "53208", "LONGITUDE": -87.954209, "State": "WI", "LATITUDE": 43.044409, "TYPE": "Affiliate Job Center", "Street_Address": "3209 W. Highland Blvd., Suite 200"}, {"City": "Cambridge", "NAME": "WorkSmart Cambridge", "Zip": "53523", "LONGITUDE": -89.015459, "State": "WI", "LATITUDE": 43.002356, "TYPE": "Affiliate Job Center", "Street_Address": "211 South St., Cambridge Food Pantry"}, {"City": "Shawano", "NAME": "Shawano County Job Center", "Zip": "54166", "LONGITUDE": -88.602206, "State": "WI", "LATITUDE": 44.772798, "TYPE": "Affiliate Job Center", "Street_Address": "607 East Elizabeth Street"}, {"City": "Oconto", "NAME": "Oconto County Job Center", "Zip": "54153", "LONGITUDE": -87.865891, "State": "WI", "LATITUDE": 44.887392, "TYPE": "Affiliate Job Center", "Street_Address": "1201 Main Street"}, {"City": "Balsam Lake", "NAME": "Polk County Job Center", "Zip": "54810", "LONGITUDE": -92.453097, "State": "WI", "LATITUDE": 45.449375, "TYPE": "Affiliate Job Center", "Street_Address": "404 Main Street, P.O. Box 278"}, {"City": "Burlington", "NAME": "Racine County Workforce Development Center", "Zip": "53105", "LONGITUDE": -88.258449, "State": "WI", "LATITUDE": 42.675859, "TYPE": "Affiliate Job Center", "Street_Address": "496 McCanna Pkwy, Room 119"}, {"City": "Independence", "NAME": "Wisconsin Job Center-Indepedence", "Zip": "54747", "LONGITUDE": -91.412235, "State": "WI", "LATITUDE": 44.364511, "TYPE": "Affiliate Job Center", "Street_Address": "36084 Walnut Street"}, {"City": "Mequon", "NAME": "Ozaukee County Workforce Development Center", "Zip": "53092", "LONGITUDE": -87.979472, "State": "WI", "LATITUDE": 43.250635, "TYPE": "Affiliate Job Center", "Street_Address": "5555 West Highland Road, P.O. Box 547"}, {"City": "Keshena", "NAME": "Center of the Menominee Nation", "Zip": "54135", "LONGITUDE": -88.631388, "State": "WI", "LATITUDE": 44.882589, "TYPE": "Affiliate Job Center", "Street_Address": "N 172 State Highway 47/55, P.O. Box 1179"}, {"City": "River Falls", "NAME": "St. Croix Valley Job Center", "Zip": "54022", "LONGITUDE": -92.629441, "State": "WI", "LATITUDE": 44.895753, "TYPE": "Affiliate Job Center", "Street_Address": "186 County Road U, Suite 205"}, {"City": "Logan", "NAME": "WORKFORCE West Virginia  Logan", "Zip": "25601-1619", "LONGITUDE": -81.998, "State": "WV", "LATITUDE": 37.8463, "TYPE": "Affiliate Job Center", "Street_Address": "300 Prosperity Lane, Suite 277; P.O. Box 1619"}]