[
    {
        "City": "Atlanta",
        "NAME": "Atlanta Regional Office",
        "Zip": "30303",
        "LONGITUDE": -84.39334,
        "State": "GA",
        "LATITUDE": 33.753029,
        "TYPE": "EBSA Regional Office",
        "Street_Address": "61 Forsyth St, SW"
    },
    {
        "City": "Pasadena",
        "NAME": "Los Angeles Regional Office",
        "Zip": "91106-2357",
        "LONGITUDE": -118.128927,
        "State": "CA",
        "LATITUDE": 34.146383,
        "TYPE": "EBSA Regional Office",
        "Street_Address": "1055 East Colorado Blvd"
    },
    {
        "City": "Dallas",
        "NAME": "Dallas Regional Office",
        "Zip": "75202-5025",
        "LONGITUDE": -96.802597,
        "State": "TX",
        "LATITUDE": 32.776368,
        "TYPE": "EBSA Regional Office",
        "Street_Address": "525 South Griffin St"
    },
    {
        "City": "Pasadena",
        "NAME": "Los Second Angeles Regional Office",
        "Zip": "91106-2357",
        "LONGITUDE": -117.128927,
        "State": "CA",
        "LATITUDE": 34.146383,
        "TYPE": "EBSA Regional Office",
        "Street_Address": "1055 East Colorado Blvd"
    },
    {
        "City": "Dallas",
        "NAME": "Dallas Second Regional Office",
        "Zip": "75202-5025",
        "LONGITUDE": -95.802597,
        "State": "TX",
        "LATITUDE": 32.776368,
        "TYPE": "EBSA Regional Office",
        "Street_Address": "525 South Griffin St"
    }
]