[{"City": "Atlanta", "NAME": "Atlanta Regional Office", "Zip": "30303", "LONGITUDE": -84.39334, "State": "GA", "LATITUDE": 33.753029, "TYPE": "EBSA Regional Office", "Street_Address": "61 Forsyth St, SW"}, {"City": "Pasadena", "NAME": "Los Angeles Regional Office", "Zip": "91106-2357", "LONGITUDE": -118.128927, "State": "CA", "LATITUDE": 34.146383, "TYPE": "EBSA Regional Office", "Street_Address": "1055 East Colorado Blvd"}, {"City": "Dallas", "NAME": "Dallas Regional Office", "Zip": "75202-5025", "LONGITUDE": -96.802597, "State": "TX", "LATITUDE": 32.776368, "TYPE": "EBSA Regional Office", "Street_Address": "525 South Griffin St"}, {"City": "San Francisco", "NAME": "San Francisco Regional Office", "Zip": "94103", "LONGITUDE": -122.265556, "State": "CA", "LATITUDE": 37.796148, "TYPE": "EBSA Regional Office", "Street_Address": "90 7th St"}, {"City": "Kansas City", "NAME": "Kansas City Regional Office", "Zip": "64108", "LONGITUDE": -94.584747, "State": "MO", "LATITUDE": 39.085806, "TYPE": "EBSA Regional Office", "Street_Address": "2300 Main St"}, {"City": "Boston", "NAME": "Boston Regional Office", "Zip": "2203", "LONGITUDE": -71.059584, "State": "MA", "LATITUDE": 42.361308, "TYPE": "EBSA Regional Office", "Street_Address": "15 New Sudbury St"}, {"City": "Philadelphia", "NAME": "Philadelphia Regional Office", "Zip": "19106-3317", "LONGITUDE": -75.15125, "State": "PA", "LATITUDE": 39.948064, "TYPE": "EBSA Regional Office", "Street_Address": "170 S Independence Mall West"}, {"City": "Plantation", "NAME": "Miami Regional/District Office", "Zip": "33324", "LONGITUDE": -80.258945, "State": "FL", "LATITUDE": 26.108882, "TYPE": "EBSA Regional/District Office", "Street_Address": "1000 S Pine Island Road"}, {"City": "Chicago", "NAME": "Chicago Regional Office", "Zip": "60604", "LONGITUDE": -87.629732, "State": "IL", "LATITUDE": 41.87842, "TYPE": "EBSA Regional Office", "Street_Address": "230 S. Dearborn Street"}, {"City": "Ft. Wright", "NAME": "Cincinnati Regional Office", "Zip": "41011-2664", "LONGITUDE": -84.542934, "State": "KY", "LATITUDE": 39.057547, "TYPE": "EBSA Regional Office", "Street_Address": "1885 Dixie Hwy"}, {"City": "New York", "NAME": "New York Regional Office", "Zip": "10004", "LONGITUDE": -74.012877, "State": "NY", "LATITUDE": 40.703276, "TYPE": "EBSA Regional Office", "Street_Address": "33 Whitehall St"}, {"City": "Detroit", "NAME": "Detroit Regional Office", "Zip": "48226", "LONGITUDE": -83.049227, "State": "MI", "LATITUDE": 42.329468, "TYPE": "EBSA Regional Office", "Street_Address": "211 West Fort St"}, {"City": "Plantation", "NAME": "Miami Regional/District Office", "Zip": "33324", "LONGITUDE": -80.258945, "State": "FL", "LATITUDE": 26.108882, "TYPE": "EBSA Regional/District Office", "Street_Address": "1000 S Pine Island Road"}, {"City": "Seattle", "NAME": "Seattle Regional/District Office", "Zip": "98104", "LONGITUDE": -122.327165, "State": "WA", "LATITUDE": 47.602086, "TYPE": "EBSA Regional/District Office", "Street_Address": "300 Fifth Avenue"}, {"City": "St. Louis", "NAME": "St. Louis Regional Office", "Zip": "63103", "LONGITUDE": -90.19993, "State": "MO", "LATITUDE": 38.624221, "TYPE": "EBSA Regional Office", "Street_Address": "1222 Spruce St"}, {"City": "Silver Spring", "NAME": "Washington DC Regional/District Office", "Zip": "20910", "LONGITUDE": -77.031589, "State": "MD", "LATITUDE": 38.993363, "TYPE": "EBSA Regional/District Office", "Street_Address": "1335 East-West Hwy"}]