[{"City": "Augusta", "NAME": "Augusta Area Office", "Zip": "04330", "LONGITUDE": -69.783448, "State": "ME", "LATITUDE": 44.311147, "TYPE": "OSHA Area Office", "Street_Address": "40 Western Avenue"}, {"City": "Bangor", "NAME": " Bangor District Office", "Zip": "04401", "LONGITUDE": -68.77442, "State": "ME", "LATITUDE": 44.80552, "TYPE": "OSHA Area Office", "Street_Address": "382 Harlow Street"}, {"City": "Concord", "NAME": "Concord Area Office", "Zip": "03301", "LONGITUDE": -71.539476, "State": "NH", "LATITUDE": 43.20247, "TYPE": "OSHA Area Office", "Street_Address": "53 Pleasant Street"}, {"City": "Bridgeport", "NAME": "Bridgeport Area Office", "Zip": "06604", "LONGITUDE": -73.190821, "State": "CT", "LATITUDE": 41.177567, "TYPE": "OSHA Area Office", "Street_Address": "1057 Broad Street"}, {"City": "Hartford", "NAME": "Hartford Area Office", "Zip": "06103", "LONGITUDE": -72.674534, "State": "CT", "LATITUDE": 41.761179, "TYPE": "OSHA Area Office", "Street_Address": "450 Main Street"}, {"City": "Springfield", "NAME": "Springfield Area Office", "Zip": "01103", "LONGITUDE": -72.590425, "State": "MA", "LATITUDE": 42.102887, "TYPE": "OSHA Area Office", "Street_Address": "1441 Main Street"}, {"City": "Andover", "NAME": "North Boston Area Office", "Zip": "01810", "LONGITUDE": -71.210585, "State": "MA", "LATITUDE": 42.690849, "TYPE": "OSHA Area Office", "Street_Address": "138 River Road"}, {"City": "Braintree", "NAME": "Braintree South Boston Area Office", "Zip": "02184", "LONGITUDE": -71.021485, "State": "MA", "LATITUDE": 42.209601, "TYPE": "OSHA Area Office", "Street_Address": "639 Granite Street"}, {"City": "Providence", "NAME": "Providence Area Office", "Zip": "02903", "LONGITUDE": -71.412834, "State": "RI", "LATITUDE": 41.823989, "TYPE": "OSHA Area Office", "Street_Address": "380 Westminster Mall"}, {"City": "North Syracuse", "NAME": "Syracuse Area Office", "Zip": "13212", "LONGITUDE": -76.158497, "State": "NY", "LATITUDE": 43.107977, "TYPE": "OSHA Area Office", "Street_Address": "3300 Vickery Road"}, {"City": "Buffalo", "NAME": "Buffalo Area Office", "Zip": "14202", "LONGITUDE": -78.879837, "State": "NY", "LATITUDE": 42.889178, "TYPE": "OSHA Area Office", "Street_Address": "130 South Elmwood Avenue"}, {"City": "Westbury", "NAME": "Long Island Area Office", "Zip": "11590", "LONGITUDE": -73.552002, "State": "NY", "LATITUDE": 40.755067, "TYPE": "OSHA Area Office", "Street_Address": "1400 Old Country Road"}, {"City": "Albany", "NAME": "Albany Area Office", "Zip": "12205", "LONGITUDE": -73.847529, "State": "NY", "LATITUDE": 42.73373, "TYPE": "OSHA Area Office", "Street_Address": "401 New Karner Road"}, {"City": "New York", "NAME": "Manhattan Area Office", "Zip": "10014", "LONGITUDE": -74.005563, "State": "NY", "LATITUDE": 40.728266, "TYPE": "OSHA Area Office", "Street_Address": "201 Varick Street"}, {"City": "Tarrytown", "NAME": "Tarrytown Area Office", "Zip": "10591", "LONGITUDE": -73.834663, "State": "NY", "LATITUDE": 41.060204, "TYPE": "OSHA Area Office", "Street_Address": "660 White Plains Rd."}, {"City": "Avenel", "NAME": "Avenel Area Office", "Zip": "07001", "LONGITUDE": -74.293861, "State": "NJ", "LATITUDE": 40.573606, "TYPE": "OSHA Area Office", "Street_Address": "1030 St. George Avenue"}, {"City": "Hasbrouck Heights", "NAME": "Hasbrouck Heights Office", "Zip": "07604", "LONGITUDE": -74.063306, "State": "NJ", "LATITUDE": 40.868717, "TYPE": "OSHA Area Office", "Street_Address": "500 Route 17 South"}, {"City": "Mariton", "NAME": "Mariton Area Office", "Zip": "08053", "LONGITUDE": -74.922701, "State": "NJ", "LATITUDE": 39.870677, "TYPE": "OSHA Area Office", "Street_Address": "701 Route 73 South"}, {"City": "Parsippany", "NAME": "Parsipy Area Office", "Zip": "07054", "LONGITUDE": -74.437952, "State": "NJ", "LATITUDE": 40.869295, "TYPE": "OSHA Area Office", "Street_Address": "299 Cherry Hill Road"}, {"City": "Guaynabo", "NAME": "Puerto Rico Area Office", "Zip": "00968", "LONGITUDE": -66.111, "State": "PR", "LATITUDE": 18.35745, "TYPE": "OSHA Area Office", "Street_Address": "1510 FD Roosevelt Avenue"}, {"City": "Linthicum", "NAME": "Baltimore/Washington, DC Area Office", "Zip": "21090", "LONGITUDE": -76.676774, "State": "MD", "LATITUDE": 39.205035, "TYPE": "OSHA Area Office", "Street_Address": "1099 Winterson Road"}, {"City": "Erie", "NAME": "Erie Area Office", "Zip": "16501", "LONGITUDE": -80.08225, "State": "PA", "LATITUDE": 42.123518, "TYPE": "OSHA Area Office", "Street_Address": "1128 State Street"}, {"City": "Pittsburgh", "NAME": "Pittsburgh Area Office", "Zip": "15222", "LONGITUDE": -79.994474, "State": "PA", "LATITUDE": 40.443537, "TYPE": "OSHA Area Office", "Street_Address": "1000 Liberty Avenue"}, {"City": "Wilmington", "NAME": "Willmington Area Office", "Zip": "19801", "LONGITUDE": -75.548111, "State": "DE", "LATITUDE": 39.745269, "TYPE": "OSHA Area Office", "Street_Address": "919 Market Street"}, {"City": "Harrisburg", "NAME": "Harrisburg Area Office", "Zip": "17109", "LONGITUDE": -76.842425, "State": "PA", "LATITUDE": 40.285451, "TYPE": "OSHA Area Office", "Street_Address": "49 North Progress Avenue"}, {"City": "Wilkes-Barre", "NAME": "Wilkes-Barre Area Office", "Zip": "18702", "LONGITUDE": -75.877185, "State": "PA", "LATITUDE": 41.242076, "TYPE": "OSHA Area Office", "Street_Address": "7 North Wilkes-Barre Boulevard"}, {"City": "Center Valley", "NAME": "Allentown Area Office", "Zip": "18034", "LONGITUDE": -75.417696, "State": "PA", "LATITUDE": 40.555436, "TYPE": "OSHA Area Office", "Street_Address": "3477 Corporate Parkway"}, {"City": "Philadelphia", "NAME": "Philadelphia Area Office", "Zip": "19106", "LONGITUDE": -75.144076, "State": "PA", "LATITUDE": 39.948379, "TYPE": "OSHA Area Office", "Street_Address": "Second & Chestnut Street"}, {"City": "Norfolk", "NAME": "Norfolk Area Office", "Zip": "23510", "LONGITUDE": -76.290727, "State": "VA", "LATITUDE": 36.848448, "TYPE": "OSHA Area Office", "Street_Address": "200 Granby Street"}, {"City": "Charleston", "NAME": "Charleston Area Office", "Zip": "25301", "LONGITUDE": -81.631368, "State": "WV", "LATITUDE": 38.351924, "TYPE": "OSHA Area Office", "Street_Address": "405 Capitol Street"}, {"City": "Tucker", "NAME": "Atlanta East Area Office", "Zip": "30084", "LONGITUDE": -84.244596, "State": "GA", "LATITUDE": 33.848367, "TYPE": "OSHA Area Office", "Street_Address": "2183 Northiake Parkway"}, {"City": "Birmingham", "NAME": "Birmingham Area Office", "Zip": "35203", "LONGITUDE": -86.809476, "State": "AL", "LATITUDE": 33.525313, "TYPE": "OSHA Area Office", "Street_Address": "950 22nd Street North"}, {"City": "Smyrna", "NAME": "Atlanta West Area Office", "Zip": "30080", "LONGITUDE": -84.47336, "State": "GA", "LATITUDE": 33.893945, "TYPE": "OSHA Area Office", "Street_Address": "2400 Herodian Way"}, {"City": "Mobile", "NAME": "Mobile Area Office", "Zip": "36609", "LONGITUDE": -88.132638, "State": "AL", "LATITUDE": 30.66744, "TYPE": "OSHA Area Office", "Street_Address": "1141 Montlimar Drive"}, {"City": "Savannah", "NAME": "Savannah Area Office", "Zip": "31406", "LONGITUDE": -81.111889, "State": "GA", "LATITUDE": 32.00267, "TYPE": "OSHA Area Office", "Street_Address": "450 Mall Boulevard"}, {"City": "Columbia", "NAME": "Columbia Area Office ", "Zip": "29201", "LONGITUDE": -81.039297, "State": "SC", "LATITUDE": 34.009614, "TYPE": "OSHA Area Office", "Street_Address": "1835 Assembly Street"}, {"City": "Raleigh", "NAME": "Raleigh Area Office", "Zip": "27609", "LONGITUDE": -78.614455, "State": "NC", "LATITUDE": 35.841445, "TYPE": "OSHA Area Office", "Street_Address": "4407 Bland Road"}, {"City": "Tampa", "NAME": "Tampa Area Office", "Zip": "33610", "LONGITUDE": -82.357968, "State": "FL", "LATITUDE": 28.001075, "TYPE": "OSHA Area Office", "Street_Address": "5807 Breckenridge Pkwy"}, {"City": "Ft. Lauderdale", "NAME": "Fort Lauderdale Area Office", "Zip": "33324", "LONGITUDE": -80.25929, "State": "FL", "LATITUDE": 26.108992, "TYPE": "OSHA Area Office", "Street_Address": "1000 South Pine Island Road"}, {"City": "Jacksonville", "NAME": "Jacksonville Area Office", "Zip": "32207", "LONGITUDE": -81.619119, "State": "FL", "LATITUDE": 30.304132, "TYPE": "OSHA Area Office", "Street_Address": "1851 Executive Center Drive"}, {"City": "Jackson", "NAME": "Jackson Area Office", "Zip": "39269", "LONGITUDE": -90.188912, "State": "MS", "LATITUDE": 32.301103, "TYPE": "OSHA Area Office", "Street_Address": "100 West Capitol Street"}, {"City": "Nashville", "NAME": "Nashville Area Office", "Zip": "37214", "LONGITUDE": -86.683232, "State": "TN", "LATITUDE": 36.147579, "TYPE": "OSHA Area Office", "Street_Address": "51 Century Blvd"}, {"City": "Calumet City", "NAME": "Calumet City Area Office", "Zip": "60409", "LONGITUDE": -87.559048, "State": "IL", "LATITUDE": 41.586494, "TYPE": "OSHA Area Office", "Street_Address": "1600 167th Street"}, {"City": "Des Plaines", "NAME": "Chicago North Area Office", "Zip": "60016", "LONGITUDE": -87.890402, "State": "IL", "LATITUDE": 42.040025, "TYPE": "OSHA Area Office", "Street_Address": "701 Lee Street"}, {"City": "North Aurora", "NAME": "Aurora Area Office", "Zip": "60542", "LONGITUDE": -88.327529, "State": "IL", "LATITUDE": 41.794173, "TYPE": "OSHA Area Office", "Street_Address": "365 Smoke Tree Plaza"}, {"City": "Peoria", "NAME": "Peoria Area Office", "Zip": "61615", "LONGITUDE": -89.612891, "State": "IL", "LATITUDE": 40.800938, "TYPE": "OSHA Area Office", "Street_Address": "1320 W. Commerce Drive"}, {"City": "Appleton", "NAME": "Appleton Area Office", "Zip": "54914", "LONGITUDE": -88.451923, "State": "WI", "LATITUDE": 44.277842, "TYPE": "OSHA Area Office", "Street_Address": "1648 Tri Park Way"}, {"City": "Cincinnati", "NAME": "Cincinnati Area Office", "Zip": "45246", "LONGITUDE": -84.446163, "State": "OH", "LATITUDE": 39.288529, "TYPE": "OSHA Area Office", "Street_Address": "36 Triangle Park Drive"}, {"City": "Toledo", "NAME": "Toledo Area Office", "Zip": "43604", "LONGITUDE": -83.535315, "State": "OH", "LATITUDE": 41.651891, "TYPE": "OSHA Area Office", "Street_Address": "420 Madison Avenue"}, {"City": "Madison", "NAME": "Madison Area Office", "Zip": "53716", "LONGITUDE": -89.299644, "State": "WI", "LATITUDE": 43.048543, "TYPE": "OSHA Area Office", "Street_Address": "4802 E. Broadway"}, {"City": "Cleveland", "NAME": "Cleveland Area Office", "Zip": "44199", "LONGITUDE": -81.693035, "State": "OH", "LATITUDE": 41.504382, "TYPE": "OSHA Area Office", "Street_Address": "1240 E. gth Street"}, {"City": "Indianapolis", "NAME": "Indianapolis Area Office", "Zip": "46204", "LONGITUDE": -86.15656, "State": "IN", "LATITUDE": 39.770339, "TYPE": "OSHA Area Office", "Street_Address": "46 E. Ohio Street"}, {"City": "Milwaukee", "NAME": "Milwaukee Area Office", "Zip": "53203", "LONGITUDE": -87.91554, "State": "WI", "LATITUDE": 43.039275, "TYPE": "OSHA Area Office", "Street_Address": "310 W. Wisconsin Avenue"}, {"City": "Columbus", "NAME": "Columbus Area Office", "Zip": "43215", "LONGITUDE": -83.000987, "State": "OH", "LATITUDE": 39.966703, "TYPE": "OSHA Area Office", "Street_Address": "200 N. High Street"}, {"City": "Lansing", "NAME": "Lansing Area Office", "Zip": "48933", "LONGITUDE": -84.556241, "State": "MI", "LATITUDE": 42.732087, "TYPE": "OSHA Area Office", "Street_Address": "315 W. Allegan Street"}, {"City": "Eau Claire", "NAME": "Eau Claire Area Office", "Zip": "54701", "LONGITUDE": -91.526649, "State": "WI", "LATITUDE": 44.797113, "TYPE": "OSHA Area Office", "Street_Address": "1310 W. Clairemont Avenue"}, {"City": "Little Rock", "NAME": "Little Rock Area Office", "Zip": "72211", "LONGITUDE": -92.397061, "State": "AR", "LATITUDE": 34.740049, "TYPE": "OSHA Area Office", "Street_Address": "10810 Executive Center Drive"}, {"City": "Corpus Christi", "NAME": "Corpus Christi Area Office", "Zip": "78476", "LONGITUDE": -97.397264, "State": "TX", "LATITUDE": 27.795777, "TYPE": "OSHA Area Office", "Street_Address": "606 N. Carancahua"}, {"City": "Fort Worth", "NAME": "Fort Worth Area Office", "Zip": "76180", "LONGITUDE": -97.21543, "State": "TX", "LATITUDE": 32.804114, "TYPE": "OSHA Area Office", "Street_Address": "8713 Airport Freeway"}, {"City": "Baton Rouge", "NAME": "Baton Rouge Area Office", "Zip": "70809", "LONGITUDE": -91.084513, "State": "LA", "LATITUDE": 30.397765, "TYPE": "OSHA Area Office", "Street_Address": "9100 Bluebonnet Centre Blvd."}, {"City": "Dallas", "NAME": "Dallas Area Office", "Zip": "75228", "LONGITUDE": -96.697655, "State": "TX", "LATITUDE": 32.792948, "TYPE": "OSHA Area Office", "Street_Address": "8344 E. R.L. Thornton Freeway"}, {"City": "Houston", "NAME": "Houston North Area Office", "Zip": "77060", "LONGITUDE": -95.392221, "State": "TX", "LATITUDE": 29.939843, "TYPE": "OSHA Area Office", "Street_Address": "507 N. Sam Houston Parkway E."}, {"City": "Austin", "NAME": "Austin Area Office", "Zip": "78752", "LONGITUDE": -97.701644, "State": "TX", "LATITUDE": 30.325015, "TYPE": "OSHA Area Office", "Street_Address": "1033 La Posada Drive"}, {"City": "San Antonio", "NAME": "San Antonio Area Office", "Zip": "78207", "LONGITUDE": -98.498884, "State": "TX", "LATITUDE": 29.423836, "TYPE": "OSHA Area Office", "Street_Address": "800 Dolorosa Street"}, {"City": "El Paso", "NAME": "El Paso Area Office", "Zip": "79912", "LONGITUDE": -106.510176, "State": "TX", "LATITUDE": 31.807477, "TYPE": "OSHA Area Office", "Street_Address": "4849 North Mesa"}, {"City": "Houston", "NAME": "Houston South Area Office", "Zip": "77058", "LONGITUDE": -95.109136, "State": "TX", "LATITUDE": 29.549567, "TYPE": "OSHA Area Office", "Street_Address": "17625 El Camino Real"}, {"City": "Oklahoma City", "NAME": "Oklahoma City Area Office", "Zip": "73102", "LONGITUDE": -97.516899, "State": "OK", "LATITUDE": 35.467301, "TYPE": "OSHA Area Office", "Street_Address": "55 North Robinson"}, {"City": "Kansas City", "NAME": "Kansas City Area Office ", "Zip": "64120", "LONGITUDE": -94.584747, "State": "MO", "LATITUDE": 39.085806, "TYPE": "OSHA Area Office", "Street_Address": "2300 Main Street"}, {"City": "St. Louis", "NAME": " St. Louis Area Office", "Zip": "63103", "LONGITUDE": -90.199854, "State": "MO", "LATITUDE": 38.624374, "TYPE": "OSHA Area Office", "Street_Address": "1222 Spruce Street"}, {"City": "Wichita", "NAME": "Wichita Area Office", "Zip": "67202", "LONGITUDE": -97.339982, "State": "KS", "LATITUDE": 37.69117, "TYPE": "OSHA Area Office", "Street_Address": "271 W. 3rd Street North"}, {"City": "Des Moines", "NAME": "Des Moines Area Office", "Zip": "50309", "LONGITUDE": -93.62005, "State": "IA", "LATITUDE": 41.586133, "TYPE": "OSHA Area Office", "Street_Address": "210 Walnut Street"}, {"City": "Omaha", "NAME": "Omaha Area Office", "Zip": "68114", "LONGITUDE": -96.075503, "State": "NE", "LATITUDE": 41.254679, "TYPE": "OSHA Area Office", "Street_Address": "444 Regency Parkway Drive"}, {"City": "Denver", "NAME": "Denver Area Office", "Zip": "80204", "LONGITUDE": -104.997957, "State": "CO", "LATITUDE": 39.737615, "TYPE": "OSHA Area Office", "Street_Address": "1391 Speer Blvd."}, {"City": "Bismarck", "NAME": "Bismark Area Office", "Zip": "58501", "LONGITUDE": -100.783461, "State": "ND", "LATITUDE": 46.805155, "TYPE": "OSHA Area Office", "Street_Address": "521 E. Main Avenue"}, {"City": "Greenwood Village", "NAME": "Englewood Area Office", "Zip": "80111", "LONGITUDE": -104.896515, "State": "CO", "LATITUDE": 39.620989, "TYPE": "OSHA Area Office", "Street_Address": "7935 East Prentice Avenue"}, {"City": "Sandy", "NAME": "Salt Lake City Area Office", "Zip": "84070", "LONGITUDE": -111.906664, "State": "UT", "LATITUDE": 40.594095, "TYPE": "OSHA Area Office", "Street_Address": "8660 South Sandy Parkway"}, {"City": "Billings", "NAME": "Billings Area Office", "Zip": "59101", "LONGITUDE": -108.509614, "State": "MT", "LATITUDE": 45.78367, "TYPE": "OSHA Area Office", "Street_Address": "2900 4th Avenue North"}, {"City": "Phoenix", "NAME": "Phoenix Area Office", "Zip": "85003", "LONGITUDE": -112.07539, "State": "AZ", "LATITUDE": 33.451026, "TYPE": "OSHA Area Office", "Street_Address": "230 North First Avenue"}, {"City": "Oakland", "NAME": "Oakland Area Office", "Zip": "94612", "LONGITUDE": -122.274051, "State": "CA", "LATITUDE": 37.805179, "TYPE": "OSHA Area Office", "Street_Address": "1301 Clay Street"}, {"City": "Honolulu", "NAME": "Honolulu Area Office", "Zip": "96850", "LONGITUDE": -157.861651, "State": "HI", "LATITUDE": 21.303395, "TYPE": "OSHA Area Office", "Street_Address": "300 Ala Moana Boulevard"}, {"City": "San Diego", "NAME": "San Diego Area Office", "Zip": "92101", "LONGITUDE": -117.167752, "State": "CA", "LATITUDE": 32.717209, "TYPE": "OSHA Area Office", "Street_Address": "550 West C Street"}, {"City": "Las Vegas ", "NAME": "Las Vegas Area Office", "Zip": "89101", "LONGITUDE": -115.144937, "State": "NV", "LATITUDE": 36.163327, "TYPE": "OSHA Area Office", "Street_Address": "600 Las Vegas Blvd., South"}, {"City": "Anchorage", "NAME": "Anchorage Area Office", "Zip": "99513", "LONGITUDE": -149.886583, "State": " Alaska ", "LATITUDE": 61.215166, "TYPE": "OSHA Area Office", "Street_Address": "222 West 7th Avenue"}, {"City": "Boise", "NAME": "Boise Area Office", "Zip": "83706", "LONGITUDE": -116.252507, "State": " Idaho", "LATITUDE": 43.61474, "TYPE": "OSHA Area Office", "Street_Address": " 1150 North Curtis Road"}, {"City": "Bellevue", "NAME": "Bellevue Area Office", "Zip": "98004", "LONGITUDE": -122.199956, "State": " WA", "LATITUDE": 47.614752, "TYPE": "OSHA Area Office", "Street_Address": "505 106th Avenue, NE"}, {"City": "Portland", "NAME": "Portland Area Office", "Zip": "97232", "LONGITUDE": -122.654919, "State": " OR", "LATITUDE": 45.529228, "TYPE": "OSHA Area Office", "Street_Address": "911 NE 11th Avenue"}]