[{"City": "Gulf Coast", "NAME": "ALABAMA", "Zip": 35203, "LONGITUDE": -87.66931980000004, "State": "AL", "LATITUDE": 30.275579, "TYPE": "WHD District Office", "Street_Address": "950 22nd St. North"}, {"City": "Phoenix", "NAME": "ARIZONA", "Zip": 85003, "LONGITUDE": -112.07539020000002, "State": "AZ", "LATITUDE": 33.4510259, "TYPE": "WHD District Office", "Street_Address": "230 N First Avenue"}, {"City": "Little Rock", "NAME": "ARKANSAS", "Zip": 72211, "LONGITUDE": -92.3970612, "State": "AR", "LATITUDE": 34.7400491, "TYPE": "WHD District Office", "Street_Address": "10810 Executive Center Dr."}, {"City": "Los Angeles", "NAME": "CALIFORNIA", "Zip": 90017, "LONGITUDE": -118.25996099999998, "State": "CA", "LATITUDE": 34.051072, "TYPE": "WHD District Office", "Street_Address": "915 Wilshire Blvd."}, {"City": "Sacramento", "NAME": "CALIFORNIA", "Zip": 95825, "LONGITUDE": -121.39787150000001, "State": "CA", "LATITUDE": 38.6033588, "TYPE": "WHD District Office", "Street_Address": "2800 Cottage Way"}, {"City": "San Diego", "NAME": "CALIFORNIA", "Zip": 92101, "LONGITUDE": -117.16775210000003, "State": "CA", "LATITUDE": 32.717209, "TYPE": "WHD District Office", "Street_Address": "550 West C St."}, {"City": "San Francisco", "NAME": "CALIFORNIA", "Zip": 94103, "LONGITUDE": -122.41197039999997, "State": "CA", "LATITUDE": 37.7798028, "TYPE": "WHD District Office", "Street_Address": "90 7th St."}, {"City": "West Covina", "NAME": "CALIFORNIA", "Zip": 91791, "LONGITUDE": -117.88072799999998, "State": "CA", "LATITUDE": 34.073109, "TYPE": "WHD District Office", "Street_Address": "100 N. Barranca St."}, {"City": "Denver", "NAME": "COLORADO", "Zip": 80202, "LONGITUDE": -104.98761300000001, "State": "CO", "LATITUDE": 39.7480979, "TYPE": "WHD District Office", "Street_Address": "1999 Broadway"}, {"City": "Hartford", "NAME": "CONNECTICUT", "Zip": 6103, "LONGITUDE": -72.67993950000005, "State": "CT", "LATITUDE": 41.7696964, "TYPE": "WHD District Office", "Street_Address": "135 High St."}, {"City": "Jacksonville", "NAME": "FLORIDA", "Zip": 32202, "LONGITUDE": -81.66372580000001, "State": "FL", "LATITUDE": 30.3269298, "TYPE": "WHD District Office", "Street_Address": "400 West Bay Street"}, {"City": "Miami", "NAME": "FLORIDA", "Zip": 33173, "LONGITUDE": -80.36099899999999, "State": "FL", "LATITUDE": 25.701155, "TYPE": "WHD District Office", "Street_Address": "10300 Sunset Drive"}, {"City": "Tampa", "NAME": "FLORIDA", "Zip": 33607, "LONGITUDE": -82.52640199999996, "State": "FL", "LATITUDE": 27.956426, "TYPE": "WHD District Office", "Street_Address": "4905 W. Laurel Ave."}, {"City": "Atlanta", "NAME": "GEORGIA", "Zip": 30303, "LONGITUDE": -84.39295949999996, "State": "GA", "LATITUDE": 33.7534749, "TYPE": "WHD District Office", "Street_Address": "61 Forsyth St. SW"}, {"City": "Honolulu", "NAME": "HAWAII", "Zip": 96850, "LONGITUDE": -157.8616515, "State": "HI", "LATITUDE": 21.3033951, "TYPE": "WHD District Office", "Street_Address": "300 Ala Moana Blvd."}, {"City": "Chicago", "NAME": "ILLINOIS", "Zip": 60604, "LONGITUDE": -87.62969570000001, "State": "IL", "LATITUDE": 41.8783941, "TYPE": "WHD District Office", "Street_Address": "230 S. Dearborn Street"}, {"City": "Indianapolis", "NAME": "INDIANA", "Zip": 46204, "LONGITUDE": -86.1570529, "State": "IN", "LATITUDE": 39.7703676, "TYPE": "WHD District Office", "Street_Address": "U.S. Courthouse 46 E. Ohio St."}, {"City": "Des Moines", "NAME": "IOWA", "Zip": 50309, "LONGITUDE": -93.62004999999999, "State": "IA", "LATITUDE": 41.5861329, "TYPE": "WHD District Office", "Street_Address": "210 Walnut Street"}, {"City": "Kansas City", "NAME": "KANSAS", "Zip": 66101, "LONGITUDE": -94.61826200000002, "State": "KS", "LATITUDE": 39.117372, "TYPE": "WHD District Office", "Street_Address": "400 State Ave. Suite 1010"}, {"City": "Louisville", "NAME": "KENTUCKY", "Zip": 40202, "LONGITUDE": -85.75799799999999, "State": "KY", "LATITUDE": 38.246048, "TYPE": "WHD District Office", "Street_Address": "332 West Broadway"}, {"City": "New Orleans", "NAME": "LOUISIANA", "Zip": 70130, "LONGITUDE": -90.07049899999998, "State": "LA", "LATITUDE": 29.9475268, "TYPE": "WHD District Office", "Street_Address": "600 South Maestri Place"}, {"City": "Baltimore", "NAME": "MARYLAND", "Zip": 21202, "LONGITUDE": -76.60857020000003, "State": "MD", "LATITUDE": 39.2875123, "TYPE": "WHD District Office", "Street_Address": "103 South Gay St."}, {"City": "Boston", "NAME": "MASSACHUSETTS", "Zip": 2203, "LONGITUDE": -71.06043399999999, "State": "MA", "LATITUDE": 42.3610804, "TYPE": "WHD District Office", "Street_Address": "15 Sudbery St."}, {"City": "Minneapolis", "NAME": "MINNESOTA", "Zip": 55401, "LONGITUDE": -93.26654300000001, "State": "MN", "LATITUDE": 44.978677, "TYPE": "WHD District Office", "Street_Address": "331 2nd Ave. South"}, {"City": " St. Louis", "NAME": "MISSOURI", "Zip": 63103, "LONGITUDE": -90.1998537, "State": "MO", "LATITUDE": 38.6243743, "TYPE": "WHD District Office", "Street_Address": "1222 Spruce St."}, {"City": "Detroit", "NAME": "MICHIGAN", "Zip": 48228, "LONGITUDE": -83.04932400000001, "State": "MI", "LATITUDE": 42.329552, "TYPE": "WHD District Office", "Street_Address": "211 W. Fort St."}, {"City": "Grand Rapids", "NAME": "MICHIGAN", "Zip": 49503, "LONGITUDE": -85.671896, "State": "MI", "LATITUDE": 42.977016, "TYPE": "WHD District Office", "Street_Address": "800 Monroe Ave., NW"}, {"City": "Jackson", "NAME": "MISSISSIPPI", "Zip": 39269, "LONGITUDE": -90.18891200000002, "State": "MS", "LATITUDE": 32.301103, "TYPE": "WHD District Office", "Street_Address": "100 W. Capitol St."}, {"City": "Las Vegas", "NAME": "NEVADA", "Zip": 89101, "LONGITUDE": -115.14493700000003, "State": "NV", "LATITUDE": 36.163327, "TYPE": "WHD District Office", "Street_Address": "600 Las Vegas Blvd. S."}, {"City": "Manchester", "NAME": "NEW HAMPSHIRE", "Zip": 3104, "LONGITUDE": -71.465507, "State": "NH", "LATITUDE": 43.003925, "TYPE": "WHD District Office", "Street_Address": "1750 Elm St."}, {"City": "Mountainside", "NAME": "NEW JERSEY", "Zip": 7092, "LONGITUDE": -74.33774, "State": "NJ", "LATITUDE": 40.685263, "TYPE": "WHD District Office", "Street_Address": "200 Sheffield St. "}, {"City": "Lawrenceville", "NAME": "Northern", "Zip": 8648, "LONGITUDE": -74.7160864, "State": "NJ", "LATITUDE": 40.28371629999999, "TYPE": "WHD District Office", "Street_Address": "3131 Princeton Pike"}, {"City": "Albuquerque", "NAME": "NEW MEXICO", "Zip": 87103, "LONGITUDE": -106.653615, "State": "NM", "LATITUDE": 35.083495, "TYPE": "WHD District Office", "Street_Address": "500 Gold Ave. SW "}, {"City": "Albany", "NAME": "NEW YORK", "Zip": 12207, "LONGITUDE": -73.74940200000003, "State": "NY", "LATITUDE": 42.65429, "TYPE": "WHD District Office", "Street_Address": "11A Clinton Ave."}, {"City": "Long Island", "NAME": "NEW YORK", "Zip": 11590, "LONGITUDE": -73.568401, "State": "NY", "LATITUDE": 40.75207700000001, "TYPE": "WHD District Office", "Street_Address": "1400 Old Country Road"}, {"City": "New York", "NAME": "NEW YORK", "Zip": 10278, "LONGITUDE": -74.00417119999997, "State": "NY", "LATITUDE": 40.7155778, "TYPE": "WHD District Office", "Street_Address": "26 Federal Plaza"}, {"City": "Raleigh", "NAME": "NORTH CAROLINA", "Zip": 27609, "LONGITUDE": -78.61445459999999, "State": "NC", "LATITUDE": 35.841445, "TYPE": "WHD District Office", "Street_Address": "4407 Bland Road"}, {"City": "Columbus", "NAME": "OHIO", "Zip": 43215, "LONGITUDE": -83.00098700000001, "State": "OH", "LATITUDE": 39.966703, "TYPE": "WHD District Office", "Street_Address": "200 North High Street"}, {"City": "Oklahoma City", "NAME": "OKLAHOMA", "Zip": 73102, "LONGITUDE": -97.51658800000001, "State": "OK", "LATITUDE": 35.470913, "TYPE": "WHD District Office", "Street_Address": "215 Dean A. McGee Ave."}, {"City": "Portland", "NAME": "OREGON", "Zip": 97205, "LONGITUDE": -122.68066759999999, "State": "OR", "LATITUDE": 45.51637650000001, "TYPE": "WHD District Office", "Street_Address": "620 SW Main Street"}, {"City": "Philadelphia", "NAME": "PENNSYLVANIA", "Zip": 19106, "LONGITUDE": -75.16770869999999, "State": "PA", "LATITUDE": 39.9542248, "TYPE": "WHD District Office", "Street_Address": "1617 John F. Kennedy Blvd."}, {"City": "Pittsburgh", "NAME": "PENNSYLVANIA", "Zip": 15222, "LONGITUDE": -79.99455499999999, "State": "PA", "LATITUDE": 40.443464, "TYPE": "WHD District Office", "Street_Address": "1000 Liberty Ave."}, {"City": "Wilkes-Barre", "NAME": "PENNSYLVANIA", "Zip": 18702, "LONGITUDE": -75.877185, "State": "PA", "LATITUDE": 41.242076, "TYPE": "WHD District Office", "Street_Address": "7 N. Wilkes-Barre Blvd."}, {"City": "Columbia", "NAME": "SOUTH CAROLINA", "Zip": 29201, "LONGITUDE": -81.0392966, "State": "SC", "LATITUDE": 34.0096138, "TYPE": "WHD District Office", "Street_Address": "1835 Assembly St."}, {"City": "Nashville", "NAME": "TENNESSEE", "Zip": 37217, "LONGITUDE": -86.6664323, "State": "TN", "LATITUDE": 36.1035326, "TYPE": "WHD District Office", "Street_Address": "1321 Murfreesboro Rd."}, {"City": "Arlington", "NAME": "TEXAS", "Zip": 76006, "LONGITUDE": -97.08440329999996, "State": "TX", "LATITUDE": 32.7638631, "TYPE": "WHD District Office", "Street_Address": "1701 E. Lamar Blvd."}, {"City": "Houston", "NAME": "TEXAS", "Zip": 77074, "LONGITUDE": -95.5287677, "State": "TX", "LATITUDE": 29.6865596, "TYPE": "WHD District Office", "Street_Address": "8701 S. Gessner Dr."}, {"City": "San Antonio", "NAME": "TEXAS", "Zip": 78216, "LONGITUDE": -98.493288, "State": "TX", "LATITUDE": 29.534742, "TYPE": "WHD District Office", "Street_Address": "10127 Morocco"}, {"City": "Salt Lake City", "NAME": "UTAH", "Zip": 84111, "LONGITUDE": -111.88849149999999, "State": "UT", "LATITUDE": 40.7690801, "TYPE": "WHD District Office", "Street_Address": "60 E. South Temple St."}, {"City": "Richmond", "NAME": "VIRGINIA", "Zip": 23219, "LONGITUDE": -77.43395900000002, "State": "VA", "LATITUDE": 37.542926, "TYPE": "WHD District Office", "Street_Address": "400 N. 8th St."}, {"City": "Seattle", "NAME": "WASHINGTON", "Zip": 98104, "LONGITUDE": -122.32716519999997, "State": "WA", "LATITUDE": 47.6020855, "TYPE": "WHD District Office", "Street_Address": "300 5th Ave."}]