 {"TYPE":"Job Corps Center","NAME":"Alaska Job Corps Center","Street_Address":" 800 E. Lynn Martin Drive","City":" Palmer","State":"AK","Zip":"99645","LATITUDE":61.589839,"LONGITUDE":-149.099859},
 {"TYPE":"Job Corps Center","NAME":"Albuquerque Job Corps Center","Street_Address":" 1500 Indian School Road","City":"Albuquerque","State":"NM","Zip":"87104","LATITUDE":35.109403,"LONGITUDE":-106.660863},
 {"TYPE":"Job Corps Center","NAME":"Anaconda Job Corps Civilian Conservation Center","Street_Address":" 1407 Foster Creek Road","City":" Anaconda","State":"MT","Zip":"59711","LATITUDE":46.1823243,"LONGITUDE":-113.137171},
 {"TYPE":"Job Corps Center","NAME":"Angell Job Corps Civilian Conservation Center","Street_Address":" 335 N.E. Blodgett Road","City":" Yachats","State":"OR","Zip":"97498","LATITUDE":44.3624441,"LONGITUDE":-124.0870314},
 {"TYPE":"Job Corps Center","NAME":"Arecibo Job Corps Center","Street_Address":" P.O. Box 544","City":" Garrochales","State":"PR","Zip":"00652-0544","LATITUDE":18.4551549,"LONGITUDE":-66.5819231},
 {"TYPE":"Job Corps Center","NAME":"Atlanta Job Corps Center","Street_Address":" 239 West Lake Avenue","City":"Atlanta","State":"GA","Zip":"30314","LATITUDE":33.760599,"LONGITUDE":-84.442157},
 {"TYPE":"Job Corps Center","NAME":"Atterbury Job Corps Center","Street_Address":" 1025-A Hospital Rd. ","City":"Edinburgh","State":"IN","Zip":"46124","LATITUDE":39.3603498,"LONGITUDE":-86.0228744},
 {"TYPE":"Job Corps Center","NAME":"Bamberg Job Corps Center","Street_Address":" 19 Job Corps Avenue","City":" Bamberg","State":"SC","Zip":"29003","LATITUDE":33.2971012,"LONGITUDE":-81.0348202},
 {"TYPE":"Job Corps Center","NAME":"Barranquitas Job Corps Center","Street_Address":" P.O. Box 68","City":" Barranquitas","State":"PR","Zip":"794","LATITUDE":18.3962199,"LONGITUDE":-66.0315044},
 {"TYPE":"Job Corps Center","NAME":"Batesville Job Corps Center","Street_Address":" 821 Highway 51, ","City":"South Batesville","State":"MS","Zip":"38606","LATITUDE":45.526769,"LONGITUDE":-88.6132576},
 {"TYPE":"Job Corps Center","NAME":"Blackwell Job Corps Civilian Conservation Center","Street_Address":" 4155 County Highway H ","City":"Laona","State":"WI","Zip":"54541","LATITUDE":34.3162976,"LONGITUDE":-89.9431359},
 {"TYPE":"Job Corps Center","NAME":"Blue Ridge Job Corps Center","Street_Address":" 245 West Main Street","City":" Marion","State":"VA","Zip":"24354","LATITUDE":36.8316486,"LONGITUDE":-81.5224654},
 {"TYPE":"Job Corps Center","NAME":"Boxelder Job Corps Civilian Conservation Center","Street_Address":" 22023 Job Corps Place P.O. Box 110 ","City":"Nemo","State":"SD","Zip":"57759","LATITUDE":44.2109645,"LONGITUDE":-103.5507274},
 {"TYPE":"Job Corps Center","NAME":"Brooklyn Job Corps Center","Street_Address":"585 DeKalb Avenue","City":" Brooklyn","State":"NY","Zip":"11205","LATITUDE":40.6917438,"LONGITUDE":-73.9527937},
 {"TYPE":"Job Corps Center","NAME":"Brunswick Job Corps Center","Street_Address":" 4401 Glynco Industrial Parkway ","City":"Brunswick","State":"GA","Zip":"31525","LATITUDE":31.3262391,"LONGITUDE":-81.5377013},
 {"TYPE":"Job Corps Center","NAME":"Carl D. Perkins Job Corps Center","Street_Address":" 478 Meadows Branch ","City":"Prestonsburg","State":"KY","Zip":"41653-1501","LATITUDE":37.6797328,"LONGITUDE":-82.7674952},
 {"TYPE":"Job Corps Center","NAME":"Carville Job Corps Center","Street_Address":" 5465 Point Clair Road","City":" Carville","State":"LA","Zip":"70721","LATITUDE":30.1972657,"LONGITUDE":-91.1233175},
 {"TYPE":"Job Corps Center","NAME":"Cascades Job Corps Center","Street_Address":" 7782 Northern State Road","City":"Sedro Woolley","State":"WA","Zip":"98284-8241","LATITUDE":null,"LONGITUDE":null},
 {"TYPE":"Job Corps Center","NAME":"Cass Job Corps Civilian Conservation Center","Street_Address":" 21424 N. Highway 23 ","City":"Ozark","State":"AR","Zip":"72949","LATITUDE":35.687895,"LONGITUDE":-93.8193372},
 {"TYPE":"Job Corps Center","NAME":"Cassadaga Job Corps Center","Street_Address":" 8115 Glasgow Road","City":" Cassadaga","State":"NY","Zip":"14718-9619","LATITUDE":42.352207,"LONGITUDE":-79.334157},
 {"TYPE":"Job Corps Center","NAME":"Centennial Job Corps Civilian Conservation Center","Street_Address":" 3201 Ridgecrest Drive","City":" Nampa","State":"ID","Zip":"83687","LATITUDE":43.6047103,"LONGITUDE":-116.5269554},
 {"TYPE":"Job Corps Center","NAME":"Charleston Job Corps Center","Street_Address":" 1000 Kennawa Drive","City":" Charleston","State":"WV","Zip":"25311","LATITUDE":38.3325837,"LONGITUDE":-81.5798405},
 {"TYPE":"Job Corps Center","NAME":"Cincinnati Job Corps Center","Street_Address":" 1409 Western Avenue","City":" Cincinnati","State":"OH","Zip":"45214","LATITUDE":39.1105084,"LONGITUDE":-84.532124},
 {"TYPE":"Job Corps Center","NAME":"Clearfield Job Corps Center","Street_Address":" 20 West 1700 South","City":" Clearfield","State":"UT","Zip":"84016-0070","LATITUDE":41.5526808,"LONGITUDE":-81.5887496},
 {"TYPE":"Job Corps Center","NAME":"Cleveland Job Corps Center","Street_Address":" 13421 Coit Road","City":" Cleveland","State":"OH","Zip":"44110","LATITUDE":41.089586,"LONGITUDE":-112.025907},
 {"TYPE":"Job Corps Center","NAME":"Collbran Job Corps Civilian Conservation Center","Street_Address":" 57608 Highway 330 ","City":"Collbran","State":"CO","Zip":"81624-9702","LATITUDE":39.238402,"LONGITUDE":-107.977755},
 {"TYPE":"Job Corps Center","NAME":"Columbia Basin Job Corps Civilian Conservation Center","Street_Address":" 6739 24th Street","City":"Moses Lake","State":"WA","Zip":"98837-3246","LATITUDE":47.186971,"LONGITUDE":-119.3198919},
 {"TYPE":"Job Corps Center","NAME":"Curlew Job Corps Civilian Conservation Center","Street_Address":" 3 Campus Street","City":" Curlew","State":"WA","Zip":"99118","LATITUDE":48.9326246,"LONGITUDE":-118.765441},
 {"TYPE":"Job Corps Center","NAME":"David L. Carrasco Job Corps Center","Street_Address":" 11155 Gateway West ","City":"El Paso","State":"TX","Zip":"79935","LATITUDE":31.744134,"LONGITUDE":-106.329166},
 {"TYPE":"Job Corps Center","NAME":"Dayton Job Corps Center","Street_Address":" 3849 Germantown Pike ","City":"Dayton","State":"OH","Zip":"45418","LATITUDE":41.7671955,"LONGITUDE":-75.0561947},
 {"TYPE":"Job Corps Center","NAME":"Delaware Valley Job Corps Center","Street_Address":" 9368 State Route 97 P.O. Box 846 ","City":"Callicoon","State":"NY","Zip":"12723-0846","LATITUDE":39.73455,"LONGITUDE":-84.256098},
 {"TYPE":"Job Corps Center","NAME":"Denison Job Corps Center","Street_Address":" 10 Opportunity Drive","City":"Denison","State":"IA","Zip":"51442","LATITUDE":42.0159368,"LONGITUDE":-95.3252833},
 {"TYPE":"Job Corps Center","NAME":"Detroit Job Corps Center","Street_Address":" 11801 Woodrow Wilson ","City":"Detroit","State":"MI","Zip":"48206","LATITUDE":42.3879837,"LONGITUDE":-83.1039947},
 {"TYPE":"Job Corps Center","NAME":"Dr. Benjamin L. Hooks Job Corps Center","Street_Address":" 1555 McAlister Drive","City":" Memphis","State":"TN","Zip":"38116","LATITUDE":34.9974717,"LONGITUDE":-90.0096337},
 {"TYPE":"Job Corps Center","NAME":"Earle C. Clements Job Corps Center","Street_Address":" 2302 U.S. Highway 60 ","City":"East Morganfield","State":"KY","Zip":"42437","LATITUDE":37.6751097,"LONGITUDE":-87.9015938},
 {"TYPE":"Job Corps Center","NAME":"Edison Job Corps Center","Street_Address":" 500 Plainfield Avenue","City":" Edison","State":"NJ","Zip":"8817","LATITUDE":40.525821,"LONGITUDE":-74.414692},
 {"TYPE":"Job Corps Center","NAME":"Excelsior Springs Job Corps Center","Street_Address":" 701 St. Louis Avenue","City":" Excelsior Springs","State":"MO","Zip":"64024","LATITUDE":39.3363639,"LONGITUDE":-94.2306626},
 {"TYPE":"Job Corps Center","NAME":"Exeter Job Corps Center","Street_Address":" 162 Main Street","City":" Exeter","State":"RI","Zip":"2822","LATITUDE":41.5522398,"LONGITUDE":-71.5430415},
 {"TYPE":"Job Corps Center","NAME":"Flatwoods Job Corps Civilian Conservation Center","Street_Address":" 2803 Dungannon Road","City":" Coeburn","State":"VA","Zip":"24230","LATITUDE":36.8939867,"LONGITUDE":-82.4598776},
 {"TYPE":"Job Corps Center","NAME":"Flint Hills Job Corps Center","Street_Address":" 4620 Eureka Drive","City":" Manhattan","State":"KS","Zip":"66503-8488","LATITUDE":39.153697,"LONGITUDE":-96.651999},
 {"TYPE":"Job Corps Center","NAME":"Flint-Genesee Job Corps Center","Street_Address":" 2400 North Saginaw Street","City":" Flint","State":"MI","Zip":"48505","LATITUDE":43.0380664,"LONGITUDE":-83.6938472},
 {"TYPE":"Job Corps Center","NAME":"Fort Simcoe Job Corps Civilian Conservation Center","Street_Address":" 40 Abella Lane ","City":"White Swan","State":"WA","Zip":"98952","LATITUDE":32.209585,"LONGITUDE":-110.942837},
 {"TYPE":"Job Corps Center","NAME":"Fred G. Acosta Job Corps Center","Street_Address":" 901 South Campbell Avenue","City":" Tucson","State":"AZ","Zip":"85719-6596","LATITUDE":46.3376985,"LONGITUDE":-120.8569696},
 {"TYPE":"Job Corps Center","NAME":"Frenchburg Job Corps Civilian Conservation Center","Street_Address":" 6969 Tarr Ridge Road","City":" Frenchburg","State":"KY","Zip":"40322","LATITUDE":37.8768993,"LONGITUDE":-83.6201195},
 {"TYPE":"Job Corps Center","NAME":"Gadsden Job Corps Center","Street_Address":" 600 Valley Street","City":" Gadsden","State":"AL","Zip":"35902","LATITUDE":34.0247153,"LONGITUDE":-85.9951417},
 {"TYPE":"Job Corps Center","NAME":"Gainesville Job Corps Center","Street_Address":" 5301 N.E. 40th Terrace  ","City":"Gainesville","State":"FL","Zip":"32601","LATITUDE":29.704038,"LONGITUDE":-82.2694269},
 {"TYPE":"Job Corps Center","NAME":"Gary Job Corps Center","Street_Address":" 2800 Airport, Highway 21 P.O. Box 967 ","City":"San Marcos","State":"TX","Zip":"78667","LATITUDE":29.8842359,"LONGITUDE":-97.8932188},
 {"TYPE":"Job Corps Center","NAME":"Gerald R. Ford Job Corps Center","Street_Address":" 110 Hall Street","City":"Grand Rapids","State":"MI","Zip":"49507","LATITUDE":42.94015,"LONGITUDE":-85.664676},
 {"TYPE":"Job Corps Center","NAME":"Glenmont Job Corps Center","Street_Address":" 822 River Road","City":"Glenmont","State":"NY","Zip":"12077-0993","LATITUDE":42.568906,"LONGITUDE":-73.754992},
 {"TYPE":"Job Corps Center","NAME":"Golconda Job Corps Civilian Conservation Center","Street_Address":"Rural Route 1, Box 104A ","City":"Golconda","State":"IL","Zip":"62938","LATITUDE":37.3672744,"LONGITUDE":-88.4864316},
 {"TYPE":"Job Corps Center","NAME":"Grafton Job Corps Center","Street_Address":" 100 Pine Street","City":" North Grafton","State":"MA","Zip":"1536","LATITUDE":42.2517348,"LONGITUDE":-71.6835066},
 {"TYPE":"Job Corps Center","NAME":"Great Onyx Job Corps Civilian Conservation Center","Street_Address":" 3115 Ollie Ridge Road","City":" Mammoth Cave","State":"KY","Zip":"42259","LATITUDE":37.2512201,"LONGITUDE":-86.2203049},
 {"TYPE":"Job Corps Center","NAME":"Gulfport Job Corps Center","Street_Address":" 3300 20th Street","City":" Gulfport","State":"Mississippi","Zip":"39501","LATITUDE":30.3745798,"LONGITUDE":-89.101618},
 {"TYPE":"Job Corps Center","NAME":"Guthrie Job Corps Center","Street_Address":" 3106 W. University ","City":"Guthrie","State":"OK","Zip":"73044","LATITUDE":35.8713848,"LONGITUDE":-97.478806},
 {"TYPE":"Job Corps Center","NAME":"Harpers Ferry Job Corps Civilian Conservation Center","Street_Address":" 146 Buffalo Drive","City":" Harpers Ferry","State":"WV","Zip":"25425","LATITUDE":39.347232,"LONGITUDE":-77.813042},
 {"TYPE":"Job Corps Center","NAME":"Hartford Job Corps Center","Street_Address":" 100 William Shorty Campbell Street","City":" Hartford","State":"CT","Zip":"6106","LATITUDE":41.7405949,"LONGITUDE":-72.7095907},
 {"TYPE":"Job Corps Center","NAME":"Hawaii Job Corps Center","Street_Address":"41-467 Hihimanu Street","City":" Waimanalo","State":"HI","Zip":"96795","LATITUDE":21.3426998,"LONGITUDE":-157.7196886},
 {"TYPE":"Job Corps Center","NAME":"Homestead Job Corps Center","Street_Address":" 12350 S.W. 285th Street","City":" Homestead","State":"FL","Zip":"33033","LATITUDE":25.5024927,"LONGITUDE":-80.4213938},
 {"TYPE":"Job Corps Center","NAME":"Hubert H. Humphrey Job Corps Center","Street_Address":" 1480 North Snelling Avenue","City":" St. Paul","State":"MN","Zip":"55108","LATITUDE":44.984759,"LONGITUDE":-93.165916},
 {"TYPE":"Job Corps Center","NAME":"IndyPendence Job Corps Center","Street_Address":"222 E. Ohio Street","City":" Indianapolis","State":"IN","Zip":"46204","LATITUDE":39.770123,"LONGITUDE":-86.153583},
 {"TYPE":"Job Corps Center","NAME":"Inland Empire Job Corps Center","Street_Address":"3173 Kerry Street","City":" San Bernardino","State":"CA","Zip":"92405","LATITUDE":34.1519692,"LONGITUDE":-117.338558},
 {"TYPE":"Job Corps Center","NAME":"Iroquois Job Corps Center","Street_Address":" 11780 Tibbets Road","City":" Medina","State":"NY","Zip":"14103","LATITUDE":43.1415701,"LONGITUDE":-78.3606146},
 {"TYPE":"Job Corps Center","NAME":"Jacksonville Job Corps Center","Street_Address":" 4811 Payne Stewart Way ","City":"Jacksonville","State":"FL","Zip":"32209","LATITUDE":30.3617348,"LONGITUDE":-81.6966306},
 {"TYPE":"Job Corps Center","NAME":"Jacobs Creek Job Corps Civilian Conservation Center","Street_Address":" 984 Denton Valley Road","City":" Bristol","State":"TN","Zip":"37620","LATITUDE":36.562135,"LONGITUDE":-81.983736},
 {"TYPE":"Job Corps Center","NAME":"Joliet Job Corps Center","Street_Address":" 1101 Mills Road","City":" Joliet","State":"IL","Zip":"60433","LATITUDE":41.504865,"LONGITUDE":-88.055718},
 {"TYPE":"Job Corps Center","NAME":"Keystone Job Corps Center","Street_Address":" 235 West Foothills Drive","City":" Drums","State":"PA","Zip":"18222","LATITUDE":41.0022262,"LONGITUDE":-75.99043},
 {"TYPE":"Job Corps Center","NAME":"Kicking Horse Job Corps Center","Street_Address":" 33091 Mollman Pass Trail ","City":"Ronan","State":"MT","Zip":"59864","LATITUDE":47.4788881,"LONGITUDE":-114.0394336},
 {"TYPE":"Job Corps Center","NAME":"Kittrell Job Corps Center","Street_Address":" 1096 U.S. Highway, #1 South P.O. Box 278 ","City":"Kittrell","State":"NC","Zip":"27544","LATITUDE":27.5505532,"LONGITUDE":-99.5108684},
 {"TYPE":"Job Corps Center","NAME":"Laredo Job Corps Center","Street_Address":" 1701 Island Street","City":"Laredo","State":"TX","Zip":"78044-1819","LATITUDE":36.2639479,"LONGITUDE":-78.4190673},
 {"TYPE":"Job Corps Center","NAME":"Little Rock Job Corps Center","Street_Address":" 6900 Scott Hamilton Drive","City":" Little Rock","State":"AR","Zip":"72209","LATITUDE":34.68652,"LONGITUDE":-92.318156},
 {"TYPE":"Job Corps Center","NAME":"Long Beach Job Corps Center","Street_Address":"1903 Santa Fe Avenue","City":" Long Beach","State":"CA","Zip":"90810-4050","LATITUDE":33.7921943,"LONGITUDE":-118.2160018},
 {"TYPE":"Job Corps Center","NAME":"Loring Job Corps Center","Street_Address":" 36 Montana Road","City":" Limestone","State":"ME","Zip":"4750","LATITUDE":46.9354698,"LONGITUDE":-67.9009039},
 {"TYPE":"Job Corps Center","NAME":"Los Angeles Job Corps Center","Street_Address":"1106 South Broad Way","City":"Los Angeles","State":"CA","Zip":"90015","LATITUDE":34.0393625,"LONGITUDE":-118.2590498},
 {"TYPE":"Job Corps Center","NAME":"Lyndon B. Johnson Job Corps Civilian Conservation Center","Street_Address":" 3170 Wayah Road","City":" Franklin","State":"NC","Zip":"28734","LATITUDE":35.1643802,"LONGITUDE":-83.5111463},
 {"TYPE":"Job Corps Center","NAME":"Maui Job Corps Center","Street_Address":"500 Ike Drive","City":"Maui","State":"Hawaii","Zip":"96768","LATITUDE":20.886657,"LONGITUDE":-156.339416},
 {"TYPE":"Job Corps Center","NAME":"Miami Job Corps Center","Street_Address":" 3050 N.W. 183rd Street","City":" Miami Gardens","State":"FL","Zip":"33056-3536","LATITUDE":25.9405198,"LONGITUDE":-80.2515342},
 {"TYPE":"Job Corps Center","NAME":"Milwaukee Job Corps Center","Street_Address":" 6665 N 60th Street","City":" Milwaukee","State":"WI","Zip":"53223","LATITUDE":43.139414,"LONGITUDE":-87.988861},
 {"TYPE":"Job Corps Center","NAME":"Mingo Job Corps Civilian Conservation Center","Street_Address":"4253 State Highway T ","City":"Puxico","State":"MO","Zip":"63960","LATITUDE":36.9373714,"LONGITUDE":-90.2005258},
 {"TYPE":"Job Corps Center","NAME":"Mississippi Job Corps Center","Street_Address":" 400 Harmony Road","City":"Crystal Springs","State":"MS","Zip":"39059","LATITUDE":31.9803693,"LONGITUDE":-90.3431309},
 {"TYPE":"Job Corps Center","NAME":"Montgomery Job Corps Center","Street_Address":" 1145 Air Base Boulevard ","City":"Montgomery","State":"AL","Zip":"36108","LATITUDE":32.3482426,"LONGITUDE":-86.3419306},
 {"TYPE":"Job Corps Center","NAME":"Muhlenberg Job Corps Center","Street_Address":" 3875 State Route Highway 181 North ","City":"Greenville","State":"KY","Zip":"42345","LATITUDE":37.2318987,"LONGITUDE":-87.1932009},
 {"TYPE":"Job Corps Center","NAME":"New Haven Job Corps Center","Street_Address":" 455 Wintergreen Avenue","City":" New Haven","State":"CT","Zip":"6515","LATITUDE":41.3417375,"LONGITUDE":-72.9607987},
 {"TYPE":"Job Corps Center","NAME":"New Orleans Job Corps Center","Street_Address":" 8825 Airline Drive","City":" New Orleans","State":"LA","Zip":"70118","LATITUDE":29.9720818,"LONGITUDE":-90.1259769},
 {"TYPE":"Job Corps Center","NAME":"North Texas Job Corps Center","Street_Address":" 1701 N. Church Street","City":" McKinney","State":"TX","Zip":"75069","LATITUDE":33.221386,"LONGITUDE":-96.61791},
 {"TYPE":"Job Corps Center","NAME":"Northlands Job Corps Center","Street_Address":" 100A MacDonough Drive","City":" Vergennes","State":"VT","Zip":"5491","LATITUDE":44.1703727,"LONGITUDE":-73.2619589},
 {"TYPE":"Job Corps Center","NAME":"Oconaluftee Job Corps Civilian Conservation Center","Street_Address":" 502 Oconaluftee Job Corps Road","City":" Cherokee","State":"NC","Zip":"28719","LATITUDE":35.5221884,"LONGITUDE":-83.3056355},
 {"TYPE":"Job Corps Center","NAME":"Old Dominion Job Corps Center","Street_Address":" 1073 Father Judge Road","City":" Monroe","State":"VA","Zip":"24574","LATITUDE":37.5540769,"LONGITUDE":-79.1282725},
 {"TYPE":"Job Corps Center","NAME":"Oneonta Job Corps Center","Street_Address":" 21 Homer Folks Avenue","City":" Oneonta","State":"NY","Zip":"13820","LATITUDE":42.4759913,"LONGITUDE":-75.0688227},
 {"TYPE":"Job Corps Center","NAME":"Ottumwa ","Street_Address":" 15229 Truman Street","City":" Ottumwa","State":"IA","Zip":"52501","LATITUDE":41.106966,"LONGITUDE":-92.4347971},
 {"TYPE":"Job Corps Center","NAME":"Ouachita Job Corps Civilian Conservation Center","Street_Address":" 570 Job Corps Road","City":" Royal","State":"AR","Zip":"71968","LATITUDE":34.5390242,"LONGITUDE":-93.1986418},
 {"TYPE":"Job Corps Center","NAME":"Partners in Vocational Opportunity Training (PIVOT) Job Corps Center","Street_Address":"2701 N.W. Vaughn Street","City":" Portland","State":"OR","Zip":"97210","LATITUDE":45.5375748,"LONGITUDE":-122.7083825},
 {"TYPE":"Job Corps Center","NAME":"Paul Simon Chicago Job Corps Center","Street_Address":"3348 South Kedzie Avenue","City":" Chicago","State":"IL","Zip":"60623","LATITUDE":41.832292,"LONGITUDE":-87.706161},
 {"TYPE":"Job Corps Center","NAME":"Penobscot Job Corps Center","Street_Address":" 1375 Union Street","City":" Bangor","State":"ME","Zip":"4401","LATITUDE":44.8216428,"LONGITUDE":-68.8197128},
 {"TYPE":"Job Corps Center","NAME":"Philadelphia Job Corps Center","Street_Address":" 2810 South 20th Street","City":" Philadelphia","State":"PA","Zip":"19145","LATITUDE":39.9172978,"LONGITUDE":-75.1811333},
 {"TYPE":"Job Corps Center","NAME":"Phoenix Job Corps Center","Street_Address":" 518 South Third Street","City":" Phoenix","State":"AZ","Zip":"85004","LATITUDE":33.442478,"LONGITUDE":-112.070116},
 {"TYPE":"Job Corps Center","NAME":"Pine Knot Job Corps Civilian Conservation Center","Street_Address":" 132 Job Corps Road","City":" Pine Knot","State":"KY","Zip":"42635","LATITUDE":36.66849,"LONGITUDE":-84.446378},
 {"TYPE":"Job Corps Center","NAME":"Pine Ridge Job Corps Civilian Conservation Center","Street_Address":" 15710 Highway 385 ","City":"Chadron","State":"NE","Zip":"69337","LATITUDE":42.6323432,"LONGITUDE":-102.9694607},
 {"TYPE":"Job Corps Center","NAME":"Pinellas County Job Corps Center","Street_Address":" 500 22nd Street","City":" South St Petersburg","State":"FL","Zip":"33712","LATITUDE":40.4784351,"LONGITUDE":-79.9016663},
 {"TYPE":"Job Corps Center","NAME":"Pittsburgh Job Corps Center","Street_Address":" 7175 Highland Drive","City":" Pittsburgh","State":"PA","Zip":"15206","LATITUDE":27.765333,"LONGITUDE":-82.661751},
 {"TYPE":"Job Corps Center","NAME":"Potomac Job Corps Center","Street_Address":" #1 DC Village Lane S.W. ","City":"Washington","State":"DC","Zip":"20032","LATITUDE":38.8175866,"LONGITUDE":-77.0130996},
 {"TYPE":"Job Corps Center","NAME":"Quentin-Burdick Job Corps Center","Street_Address":" 1500 University Avenue","City":" Minot","State":"ND","Zip":"58703","LATITUDE":48.2452023,"LONGITUDE":-101.3163308},
 {"TYPE":"Job Corps Center","NAME":"Ramey Job Corps Center","Street_Address":" P.O. Box 250463 Belt St.  Ramey Base ","City":"Aguadilla","State":"PR","Zip":"00604-0463","LATITUDE":null,"LONGITUDE":null},
 {"TYPE":"Job Corps Center","NAME":"Red Rock Job Corps Center","Street_Address":" Route 487 North P.O. Box 218 ","City":"Lopez","State":"PA","Zip":"18628","LATITUDE":41.1870795,"LONGITUDE":-76.3852858},
 {"TYPE":"Job Corps Center","NAME":"Roswell Job Corps Center","Street_Address":"57 G Street","City":"Roswell","State":"NM","Zip":"88202","LATITUDE":33.3132848,"LONGITUDE":-104.5172917},
 {"TYPE":"Job Corps Center","NAME":"Sacramento Job Corps Center","Street_Address":" 3100 Meadowview Road","City":" Sacramento","State":"CA","Zip":"95832-1498","LATITUDE":38.4812508,"LONGITUDE":-121.4725124},
 {"TYPE":"Job Corps Center","NAME":"San Diego Job Corps","Street_Address":"1325 Iris Avenue","City":" Imperial Beach","State":"CA","Zip":"95832","LATITUDE":32.5690207,"LONGITUDE":-117.1035023},
 {"TYPE":"Job Corps Center","NAME":"San Jose Job Corps Center","Street_Address":" 3485 East Hills Drive","City":" San Jose","State":"CA","Zip":"95127-2970","LATITUDE":37.3669614,"LONGITUDE":-121.82053},
 {"TYPE":"Job Corps Center","NAME":"Schenck Job Corps Civilian Conservation Center","Street_Address":" 98 Schenck Drive","City":" Pisgah Forest","State":"NC","Zip":"28768","LATITUDE":35.2772116,"LONGITUDE":-82.7186651},
 {"TYPE":"Job Corps Center","NAME":"Shreveport Job Corps Center","Street_Address":" 2815 Lillian Street","City":" Shreveport","State":"LA","Zip":"71109","LATITUDE":32.492468,"LONGITUDE":-93.783358},
 {"TYPE":"Job Corps Center","NAME":"Shriver Job Corps Center","Street_Address":" 270 Jackson Road","City":" Devens","State":"MA","Zip":"1434","LATITUDE":42.5516077,"LONGITUDE":-71.6066725},
 {"TYPE":"Job Corps Center","NAME":"Sierra Nevada  Job Corps Center","Street_Address":"5505 Echo Avenue","City":" Reno","State":"NV","Zip":"89506-1225","LATITUDE":39.6546464,"LONGITUDE":-119.8865035},
 {"TYPE":"Job Corps Center","NAME":"South Bronx Job Corps Center","Street_Address":" 1771 Andrews Avenue","City":" Bronx","State":"NY","Zip":"10453","LATITUDE":40.8510595,"LONGITUDE":-73.9162867},
 {"TYPE":"Job Corps Center","NAME":"Springdale Job Corps Center","Street_Address":" 31224 E. Historic Columbia River Highway ","City":"Troutdale","State":"OR","Zip":"97060","LATITUDE":45.516688,"LONGITUDE":-122.338106},
 {"TYPE":"Job Corps Center","NAME":"St. Louis Job Corps Center","Street_Address":" 4333 Goodfellow Boulevard ","City":"St. Louis","State":"MO","Zip":"63120","LATITUDE":35.841191,"LONGITUDE":-94.98531},
 {"TYPE":"Job Corps Center","NAME":"Talking Leaves Job Corps Center","Street_Address":" 5700 Bald Hill Road","City":"Tahlequah","State":"OK","Zip":"74465","LATITUDE":38.6920843,"LONGITUDE":-90.2687707},
 {"TYPE":"Job Corps Center","NAME":"Timber Lake Job Corps Civilian Conservation Center","Street_Address":" 59868 East Highway 224","City":" Estacada","State":"OR","Zip":"97023","LATITUDE":45.2327361,"LONGITUDE":-122.253398},
 {"TYPE":"Job Corps Center","NAME":"Tongue Point Job Corps Center","Street_Address":" 37573 Old Highway #30 ","City":"Astoria","State":"OR","Zip":"97103-7000","LATITUDE":45.899701,"LONGITUDE":-114.166523},
 {"TYPE":"Job Corps Center","NAME":"Trapper Creek Job Corps Civilian Conservation Center","Street_Address":" 5139 West Fork Road","City":" Darby","State":"MT","Zip":"59829","LATITUDE":46.169829,"LONGITUDE":-123.5862047},
 {"TYPE":"Job Corps Center","NAME":"Treasure Island Job Corps Center","Street_Address":" 351 H Avenue","City":" San Francisco","State":"CA","Zip":"94130-5027","LATITUDE":37.8237423,"LONGITUDE":-122.3689575},
 {"TYPE":"Job Corps Center","NAME":"Treasure Lake Job Corps Civilian Conservation Center","Street_Address":" 1111 Indiahoma Road","City":" Indiahoma","State":"OK","Zip":"73552","LATITUDE":34.6986405,"LONGITUDE":-98.7385868},
 {"TYPE":"Job Corps Center","NAME":"Tulsa Job Corps Center","Street_Address":" 1133 N. Lewis Avenue","City":" Tulsa","State":"OK","Zip":"74110","LATITUDE":31.6021344,"LONGITUDE":-84.1052712},
 {"TYPE":"Job Corps Center","NAME":"Turner Job Corps Center","Street_Address":" 2000 Schilling Avenue","City":" Albany ","State":"GA","Zip":"31705","LATITUDE":41.1323887,"LONGITUDE":-111.9019776},
 {"TYPE":"Job Corps Center","NAME":"Weber Basin Job Corps Civilian Conservation Center","Street_Address":" 7400 South Cornia Drive","City":" Ogden","State":"UT","Zip":"84405","LATITUDE":36.1711147,"LONGITUDE":-95.9574831},
 {"TYPE":"Job Corps Center","NAME":"Westover Job Corps Center","Street_Address":" 103 Johnson Road","City":" Chicopee","State":"MA","Zip":"1022","LATITUDE":42.1964446,"LONGITUDE":-72.5623956},
 {"TYPE":"Job Corps Center","NAME":"Whitney M. Young Jr. Job Corps Center","Street_Address":" 8460 Shelbyville Road","City":" Simpsonville","State":"KY","Zip":"40067","LATITUDE":38.2241172,"LONGITUDE":-85.3748667},
 {"TYPE":"Job Corps Center","NAME":"Wilmington Job Corps Center","Street_Address":" 9 Vandever Avenue","City":" Wilmington","State":"DE","Zip":"19802","LATITUDE":43.243092,"LONGITUDE":-122.932159},
 {"TYPE":"Job Corps Center","NAME":"Wolf Creek Job Corps Civilian Conservation Center","Street_Address":" 2010 Opportunity Lane ","City":"Glide","State":"OR","Zip":"97443","LATITUDE":39.7522053,"LONGITUDE":-75.5395535},
 {"TYPE":"Job Corps Center","NAME":"Woodland Job Corps Center","Street_Address":" 3300 Fort Meade Road","City":" Laurel","State":"MD","Zip":"20724","LATITUDE":39.3355186,"LONGITUDE":-76.8700528},
 {"TYPE":"Job Corps Center","NAME":"Woodstock Job Corps Center ","Street_Address":"10900 Old Court Road","City":" Woodstock","State":"MD","Zip":"21163","LATITUDE":39.0918324,"LONGITUDE":-76.7791062},
