[{"TYPE":"Comprehensive Job Center","NAME":"St. Joseph County WorkOne Center","Street_Address":"851 South Marietta Street","City":"South Bend","State":"IN","Zip":"46601-3253","LATITUDE":41.666622,"LONGITUDE":-86.241109},
{"TYPE":"Comprehensive Job Center","NAME":"WorkOne Bloomington","Street_Address":"450 S. Landmark Avenue","City":"Bloomington","State":"IN","Zip":"47403","LATITUDE":39.162193,"LONGITUDE":-86.555889},
{"TYPE":"Comprehensive Job Center","NAME":"WorkOne Bedford","Street_Address":"918 16th Street, Suite 200","City":"Bedford","State":"IN","Zip":"47421-3861","LATITUDE":38.860992,"LONGITUDE":-86.483048},
{"TYPE":"Comprehensive Job Center","NAME":"WorkOne Terre Haute","Street_Address":"30 North 8th Street","City":"Terre Haute","State":"IN","Zip":"47807","LATITUDE":39.467134,"LONGITUDE":-87.405847},
{"TYPE":"Comprehensive Job Center","NAME":"WorkOne Northeast Indiana - Grant County","Street_Address":"850 North Miller Avenue","City":"Marion","State":"IN","Zip":"46952","LATITUDE":40.570839,"LONGITUDE":-85.693107},
{"TYPE":"Comprehensive Job Center","NAME":"LaPorte WorkOne","Street_Address":"300 Legacy Plaza West","City":"LaPorte","State":"IN","Zip":"46350-5276","LATITUDE":41.601838,"LONGITUDE":-86.696087},
{"TYPE":"Comprehensive Job Center","NAME":"WorkOne Gary","Street_Address":"3522 Village Circle","City":"Gary","State":"IN","Zip":"46408-1428","LATITUDE":41.557327,"LONGITUDE":-87.367592},
{"TYPE":"Comprehensive Job Center","NAME":"WorkOne Southeast","Street_Address":"110 Walnut Street","City":"Lawrenceburg","State":"IN","Zip":"47025-1838","LATITUDE":39.092771,"LONGITUDE":-84.847663},
{"TYPE":"Comprehensive Job Center","NAME":"WorkOne Muncie","Street_Address":"201 East Charles Street, Suite 100","City":"Muncie","State":"IN","Zip":"47305","LATITUDE":40.191056,"LONGITUDE":-85.385361},
{"TYPE":"Comprehensive Job Center","NAME":"WorkOne Anderson","Street_Address":"222 East 10th St., Suite B","City":"Anderson","State":"IN","Zip":"46016-1721","LATITUDE":40.106155,"LONGITUDE":-85.676637},
{"TYPE":"Comprehensive Job Center","NAME":"WorkOne Indianapolis East","Street_Address":"2525 N. Shadeland Avenue, Suite C-3","City":"Indianapolis","State":"IN","Zip":"46219-1770","LATITUDE":39.804029,"LONGITUDE":-86.045453},
{"TYPE":"Comprehensive Job Center","NAME":"WorkOne Richmond","Street_Address":"3771 South ``A`` Street","City":"Richmond","State":"IN","Zip":"47374-6053","LATITUDE":39.826440,"LONGITUDE":-84.850502},
{"TYPE":"Comprehensive Job Center","NAME":"WorkOne Shelbyville","Street_Address":"130 W. Rampart Road","City":"Shelbyville","State":"IN","Zip":"46176","LATITUDE":39.547533,"LONGITUDE":-85.779122},
{"TYPE":"Comprehensive Job Center","NAME":"WorkOne New Albany Center","Street_Address":"2125 State St., Suite 16","City":"New Albany","State":"IN","Zip":"47150","LATITUDE":38.303137,"LONGITUDE":-85.837842},
{"TYPE":"Comprehensive Job Center","NAME":"WorkOne Lafayette","Street_Address":"820 Park East Blvd","City":"Lafayette","State":"IN","Zip":"47905","LATITUDE":40.406000,"LONGITUDE":-86.828700},
{"TYPE":"Comprehensive Job Center","NAME":"Work One Southeast","Street_Address":"620 Green Road","City":"Madison","State":"IN","Zip":"47250-1078","LATITUDE":38.761731,"LONGITUDE":-85.400104},
{"TYPE":"Comprehensive Job Center","NAME":"WorkOne Hammond","Street_Address":"5265 Hohman Ave","City":"Hammond","State":"IN","Zip":"46320","LATITUDE":41.617363,"LONGITUDE":-87.521993},
{"TYPE":"Comprehensive Job Center","NAME":"WorkOne Northeast Indiana- Allen County","Street_Address":"201 East Rudisill Boulevard, Suite 102","City":"Fort Wayne","State":"IN","Zip":"46806-1756","LATITUDE":41.050138,"LONGITUDE":-85.135327},
{"TYPE":"Comprehensive Job Center","NAME":"WorkOne Southeast","Street_Address":"4555 Central Avenue, Suite 1300","City":"Columbus","State":"IN","Zip":"47203","LATITUDE":39.250260,"LONGITUDE":-85.904053},
{"TYPE":"Comprehensive Job Center","NAME":"Portage WorkOne","Street_Address":"1575 Adler Circle, Suite A","City":"Portage","State":"IN","Zip":"46368","LATITUDE":41.606588,"LONGITUDE":-87.169417},
{"TYPE":"Comprehensive Job Center","NAME":"WorkOne Kokomo","Street_Address":"709 South Reed Road","City":"Kokomo","State":"IN","Zip":"46901","LATITUDE":40.480366,"LONGITUDE":-86.107839},
{"TYPE":"Comprehensive Job Center","NAME":"WorkOne Indianapolis West Side","Street_Address":"3400 Lafayette Rd., Suite 100","City":"Indianapolis","State":"IN","Zip":"46222","LATITUDE":39.816806,"LONGITUDE":-86.227915},
{"TYPE":"Comprehensive Job Center","NAME":"WorkOne Linton","Street_Address":"1600 NE A Street, Suite 4","City":"Linton","State":"IN","Zip":"47441-0069","LATITUDE":39.037879,"LONGITUDE":-87.145216},
{"TYPE":"Comprehensive Job Center","NAME":"Elkhart County WorkOne Center","Street_Address":"430 Waterfall Drive","City":"Elkhart","State":"IN","Zip":"46516-3696","LATITUDE":41.685321,"LONGITUDE":-85.963412},
{"TYPE":"Comprehensive Job Center","NAME":"WorkOne Southwest","Street_Address":"700 East Walnut","City":"Evansville","State":"IN","Zip":"47713-2536","LATITUDE":37.973658,"LONGITUDE":-87.554318},
{"TYPE":"Comprehensive Job Center","NAME":"WorkOne Vincennes","Street_Address":"1500 North Chestnut","City":"Vincennes","State":"IN","Zip":"47591","LATITUDE":38.690421,"LONGITUDE":-87.520300},
{"TYPE":"Comprehensive Job Center","NAME":"WorkOne Northeast Indiana - DeKalb County","Street_Address":"936 West 15th Street, Suite 100","City":"Auburn","State":"IN","Zip":"46706-2031","LATITUDE":41.362386,"LONGITUDE":-85.069371},
{"TYPE":"Affiliate Job Center","NAME":"Leavenworth County Workforce Center","Street_Address":"515 Limit Street, Suite 200","City":"Leavenworth","State":"KS","Zip":"66048","LATITUDE":39.288640,"LONGITUDE":-94.909817},
{"TYPE":"Affiliate Job Center","NAME":"Cowley Workforce Center","Street_Address":"108 East 12th Street","City":"Winfield","State":"KS","Zip":"67156","LATITUDE":37.237290,"LONGITUDE":-96.996946},
{"TYPE":"Comprehensive Job Center","NAME":"Wyandotte County Workforce Center","Street_Address":"552 State Avenue","City":"Kansas City","State":"KS","Zip":"66101-2464","LATITUDE":39.116601,"LONGITUDE":-94.622774},
{"TYPE":"Comprehensive Job Center","NAME":"Butler Workforce Center","Street_Address":"2318 West Central","City":"El Dorado","State":"KS","Zip":"67042-3180","LATITUDE":37.817505,"LONGITUDE":-96.880774},
{"TYPE":"Comprehensive Job Center","NAME":"Wichita WORKFORCE CENTER","Street_Address":"150 N. Main, Suite 100","City":"Wichita","State":"KS","Zip":"67202-1323","LATITUDE":37.686971,"LONGITUDE":-97.338108},
{"TYPE":"Comprehensive Job Center","NAME":"KansasWorks Hays","Street_Address":"332 East 8th Street","City":"Hays","State":"KS","Zip":"67601-0659","LATITUDE":38.869104,"LONGITUDE":-99.327973},
{"TYPE":"Comprehensive Job Center","NAME":"KANSASWORKS Salina","Street_Address":"203 North 10th Street","City":"Salina","State":"KS","Zip":"67401","LATITUDE":38.843035,"LONGITUDE":-97.613645},
{"TYPE":"Comprehensive Job Center","NAME":"KANSASWORKS Independence","Street_Address":"200 Arco Place, Suite 101","City":"Independence","State":"KS","Zip":"67301-3363","LATITUDE":37.224845,"LONGITUDE":-95.710116},
{"TYPE":"Comprehensive Job Center","NAME":"KansasWorks Garden City","Street_Address":"107 East Spruce Street","City":"Garden City","State":"KS","Zip":"67846-0994","LATITUDE":37.969726,"LONGITUDE":-100.872879},
{"TYPE":"Comprehensive Job Center","NAME":"Junction City Workforce Center","Street_Address":"1012 A West 6th Street","City":"Junction City","State":"KS","Zip":"66441-3231","LATITUDE":39.028400,"LONGITUDE":-96.848000},
{"TYPE":"Comprehensive Job Center","NAME":"KANSASWORKS","Street_Address":"1622 Industrial Rd.","City":"Emporia","State":"KS","Zip":"66801-0707","LATITUDE":38.417570,"LONGITUDE":-96.216906},
{"TYPE":"Comprehensive Job Center","NAME":"KANSASWORKS","Street_Address":"800 West 14th Street","City":"Chanute","State":"KS","Zip":"66720","LATITUDE":37.667463,"LONGITUDE":-95.464170},
{"TYPE":"Comprehensive Job Center","NAME":"Johnson County Workforce Center","Street_Address":"9221 Quivira Road","City":"Overland Park","State":"KS","Zip":"66215-3905","LATITUDE":38.960527,"LONGITUDE":-94.723528},
{"TYPE":"Comprehensive Job Center","NAME":"KansasWorks Dodge City","Street_Address":"2308 First Avenue","City":"Dodge City","State":"KS","Zip":"67801","LATITUDE":37.774103,"LONGITUDE":-100.017921},
{"TYPE":"Comprehensive Job Center","NAME":"Kansas Works-Newton","Street_Address":"203 E Broadway","City":"Newton","State":"KS","Zip":"67114","LATITUDE":38.049848,"LONGITUDE":-97.342953},
{"TYPE":"Comprehensive Job Center","NAME":"Topeka Workforce Center","Street_Address":"1430 SW Topeka Boulevard","City":"Topeka","State":"KS","Zip":"66612","LATITUDE":39.040830,"LONGITUDE":-95.682759},
{"TYPE":"Comprehensive Job Center","NAME":"KANSASWORKS Pittsburg","Street_Address":"105 West Euclid Street","City":"Pittsburg","State":"KS","Zip":"66762","LATITUDE":37.406312,"LONGITUDE":-94.705006},
{"TYPE":"Comprehensive Job Center","NAME":"Manhattan Workforce Center","Street_Address":"205 South 4th Street, Suite K","City":"Manhattan","State":"KS","Zip":"66502-6111","LATITUDE":39.178169,"LONGITUDE":-96.561729},
{"TYPE":"Comprehensive Job Center","NAME":"Lawrence Workforce Center","Street_Address":"2540 Iowa Street, Suite R","City":"Lawrence","State":"KS","Zip":"66046","LATITUDE":38.937519,"LONGITUDE":-95.260388},
{"TYPE":"Comprehensive Job Center","NAME":"KANSASWORKS Paola - Fort Scott Community College, Miami County Campus","Street_Address":"501 South Hospital Drive, Suite 300","City":"Paola","State":"KS","Zip":"66071","LATITUDE":38.566567,"LONGITUDE":-94.863700},
{"TYPE":"Comprehensive Job Center","NAME":"KANSASWORKS","Street_Address":"609 East 14th","City":"Hutchinson","State":"KS","Zip":"67501","LATITUDE":38.068602,"LONGITUDE":-97.919436},
{"TYPE":"Comprehensive Job Center","NAME":"KansasWorks Great Bend","Street_Address":"1025 Main Street","City":"Great Bend","State":"KS","Zip":"67530-4429","LATITUDE":38.361609,"LONGITUDE":-98.765156},
{"TYPE":"Affiliate Job Center","NAME":"Estill Development Alliance","Street_Address":"177 Broadway, P. O. Box 421","City":"Irvine","State":"KY","Zip":"40336","LATITUDE":37.700575,"LONGITUDE":-83.972830},
{"TYPE":"Affiliate Job Center","NAME":"Fleming County Adult Education","Street_Address":"100 Court Square","City":"Flemingsburg","State":"KY","Zip":"41041","LATITUDE":38.422798,"LONGITUDE":-83.733154},
{"TYPE":"Affiliate Job Center","NAME":"McLean County Career Center","Street_Address":"200 North Highway 81 North","City":"Calhoun","State":"KY","Zip":"42327","LATITUDE":37.572400,"LONGITUDE":-87.223400},
{"TYPE":"Affiliate Job Center","NAME":"KCEOC Community Action Partnership, Inc.","Street_Address":"464 Court Square","City":"Barbourville","State":"KY","Zip":"40906","LATITUDE":36.866463,"LONGITUDE":-83.888194},
{"TYPE":"Affiliate Job Center","NAME":"Middle Kentucky Community Action Partnership, Inc.","Street_Address":"1970 Old Hwy 11","City":"Beattyville","State":"KY","Zip":"41311","LATITUDE":37.641535,"LONGITUDE":-83.696194},
{"TYPE":"Affiliate Job Center","NAME":"Middle Kentucky Community Action Partnership, Inc.","Street_Address":"500 Brown Street","City":"Jackson","State":"KY","Zip":"41339","LATITUDE":37.553401,"LONGITUDE":-83.383497},
{"TYPE":"Affiliate Job Center","NAME":"Salyersville-Magoffin County Learning Center","Street_Address":"109 Gardner Trail, P.O. Box 109","City":"Salyersville","State":"KY","Zip":"41465","LATITUDE":37.747185,"LONGITUDE":-83.067762},
{"TYPE":"Affiliate Job Center","NAME":"Southeast Kentucky Community and Technical College-Pineville Campus","Street_Address":"10350 US Highway 25 E. South","City":"Pineville","State":"KY","Zip":"40977","LATITUDE":36.745900,"LONGITUDE":-83.698400},
{"TYPE":"Affiliate Job Center","NAME":"Experience Works","Street_Address":"1053 Broadway, P.O. Box 667","City":"Beattyville","State":"KY","Zip":"41311","LATITUDE":37.580862,"LONGITUDE":-83.703174},
{"TYPE":"Affiliate Job Center","NAME":"Hindman-LKLP Community Action Council","Street_Address":"125 West Main Street, P.O. Box 21","City":"Hindman","State":"KY","Zip":"41822","LATITUDE":37.324700,"LONGITUDE":-82.971500},
{"TYPE":"Affiliate Job Center","NAME":"Hindman-Hazard Community & Tech. College-Knott Co. Branch","Street_Address":"238 Highway 160","City":"Hindman","State":"KY","Zip":"41822","LATITUDE":37.321400,"LONGITUDE":-82.961600},
{"TYPE":"Affiliate Job Center","NAME":"Whitesburg-LKLP Community Action Council, Inc.","Street_Address":"2 Main Street","City":"Whitesburg","State":"KY","Zip":"41858","LATITUDE":37.118218,"LONGITUDE":-82.826429},
{"TYPE":"Affiliate Job Center","NAME":"Prestonsburg-Office of Vocational Rehabilitation","Street_Address":"207 West Court Street","City":"Prestonsburg","State":"KY","Zip":"41653","LATITUDE":37.667300,"LONGITUDE":-82.774600},
{"TYPE":"Affiliate Job Center","NAME":"Lee County Adult Learning Center","Street_Address":"242 Lee Avenue, P.O. Box 130","City":"Beattyville","State":"KY","Zip":"41311","LATITUDE":37.578703,"LONGITUDE":-83.709276},
{"TYPE":"Affiliate Job Center","NAME":"Harlan-Office of Vocational Rehabilitation","Street_Address":"124 South Main Street","City":"Harlan","State":"KY","Zip":"40831","LATITUDE":36.846554,"LONGITUDE":-83.322801},
{"TYPE":"Affiliate Job Center","NAME":"West Liberty-Office of Vocational Rehabilitation","Street_Address":"563 B Main Street, P.O. Box 84","City":"West Liberty","State":"KY","Zip":"41472","LATITUDE":37.934000,"LONGITUDE":-83.225100},
{"TYPE":"Affiliate Job Center","NAME":"Prestonsburg-Office for the Blind","Street_Address":"16 Bingham Street","City":"Prestonsburg","State":"KY","Zip":"41653","LATITUDE":37.666628,"LONGITUDE":-82.734393},
{"TYPE":"Affiliate Job Center","NAME":"West Carter Adult Education Center","Street_Address":"333 Warrior Drive","City":"Olive Hill","State":"KY","Zip":"41164","LATITUDE":38.311029,"LONGITUDE":-83.149386},
{"TYPE":"Affiliate Job Center","NAME":"Pikeville-Office  of Vocational Rehabilitation","Street_Address":"126 Trivette Drive, Suite 302","City":"Pikeville","State":"KY","Zip":"41501","LATITUDE":37.482107,"LONGITUDE":-82.515518},
{"TYPE":"Affiliate Job Center","NAME":"Inez-Martin County Adult Education and Family Learning","Street_Address":"387 East Main Street","City":"Inez","State":"KY","Zip":"41224","LATITUDE":37.866500,"LONGITUDE":-82.537300},
{"TYPE":"Affiliate Job Center","NAME":"Appalachian Lifelong Learning Center","Street_Address":"101 Vo-Tech Drive","City":"Hazard","State":"KY","Zip":"41701","LATITUDE":37.265792,"LONGITUDE":-83.183854},
{"TYPE":"Affiliate Job Center","NAME":"Campton-Wolfe County Learning Center","Street_Address":"114 Old Campton, Elementary School Road","City":"Campton","State":"KY","Zip":"41301","LATITUDE":37.732300,"LONGITUDE":-83.502600},
{"TYPE":"Affiliate Job Center","NAME":"Owsley County Adult Education and Family Literacy","Street_Address":"1 Sheppard Lane, P.O. Box 828","City":"Booneville","State":"KY","Zip":"41314","LATITUDE":37.474819,"LONGITUDE":-83.666973},
{"TYPE":"Affiliate Job Center","NAME":"Kentucky Career Center","Street_Address":"138 College St","City":"Pikeville","State":"KY","Zip":"41501","LATITUDE":37.477701,"LONGITUDE":-82.519963},
{"TYPE":"Affiliate Job Center","NAME":"Kentucky Career Center - NKY/Greater Cincinnati Int`l Airport office","Street_Address":"2939 Terminal Drive, Airport Adminstration Office","City":"Hebron","State":"KY","Zip":"41048","LATITUDE":39.055300,"LONGITUDE":-84.653470},
{"TYPE":"Affiliate Job Center","NAME":"Crittenden County Ed Tech Center","Street_Address":"PO Box 381, 200 Industrial Drive","City":"Marion","State":"KY","Zip":"42064","LATITUDE":37.335600,"LONGITUDE":-88.094400},
{"TYPE":"Affiliate Job Center","NAME":"Office of Employment and Training","Street_Address":"6201 G Preston Highway","City":"Louisville","State":"KY","Zip":"40219","LATITUDE":38.141000,"LONGITUDE":-85.682200},
{"TYPE":"Affiliate Job Center","NAME":"Jefferson Community & Technical College - Metropolitan College/CREW Career Center","Street_Address":"200 West Broadway, 9th Floor","City":"Louisville","State":"KY","Zip":"40202","LATITUDE":38.245798,"LONGITUDE":-85.755232},
{"TYPE":"Affiliate Job Center","NAME":"Elliott County Public Library","Street_Address":"400 Main Street, P.O. Box 750","City":"Sandy Hook","State":"KY","Zip":"41171","LATITUDE":38.086029,"LONGITUDE":-83.126675},
{"TYPE":"Affiliate Job Center","NAME":"Harlan Co. CAA JobSight Center Southeast KCTCS-Harlan Campus","Street_Address":"164 Ball Park Road, Building 1, Room 115","City":"Harlan","State":"KY","Zip":"40831","LATITUDE":36.810101,"LONGITUDE":-83.314386},
{"TYPE":"Affiliate Job Center","NAME":"Southeast Community College","Street_Address":"129 Pine Street, P.O. Box 159","City":"Pineville","State":"KY","Zip":"40977","LATITUDE":36.763831,"LONGITUDE":-83.693292},
{"TYPE":"Affiliate Job Center","NAME":"Whitesburg-Southeast Kentucky Community and Technical College-Whitesburg Campus","Street_Address":"2 Long Ave","City":"Whitesburg","State":"KY","Zip":"41858","LATITUDE":37.120861,"LONGITUDE":-82.827833},
{"TYPE":"Affiliate Job Center","NAME":"Middle Kentucky Community Action Partnership, Inc.","Street_Address":"10 Court Street, P.O. Box 805","City":"Campton","State":"KY","Zip":"41301","LATITUDE":37.734957,"LONGITUDE":-83.547417},
{"TYPE":"Affiliate Job Center","NAME":"McCreary OET/WIA Local Office","Street_Address":"250 College Street, KCTCS","City":"Whitley City","State":"KY","Zip":"42653","LATITUDE":36.768400,"LONGITUDE":-84.475000},
{"TYPE":"Affiliate Job Center","NAME":"Ashland Technical College","Street_Address":"1140 College Drive","City":"Ashland","State":"KY","Zip":"41102","LATITUDE":38.469156,"LONGITUDE":-82.652484},
{"TYPE":"Affiliate Job Center","NAME":"Marshall County Adult Learning Center","Street_Address":"1308 US HWY 641, 86 High School Road (Mailing Address)","City":"Benton","State":"KY","Zip":"42025","LATITUDE":36.892912,"LONGITUDE":-88.344060},
{"TYPE":"Affiliate Job Center","NAME":"Clinton County Community Center","Street_Address":"110 North Spring Street, Suite D","City":"Albany","State":"KY","Zip":"42602","LATITUDE":36.690885,"LONGITUDE":-85.134087},
{"TYPE":"Affiliate Job Center","NAME":"Middlesboro Learning Center","Street_Address":"118 1/2 N. 18th Street","City":"Middlesboro","State":"KY","Zip":"40965","LATITUDE":36.607616,"LONGITUDE":-83.711085},
{"TYPE":"Affiliate Job Center","NAME":"Grant County Career Advancement Center - Kentucky Career Center/Brighton Center","Street_Address":"2020 Taft Highway","City":"Dry Ridge","State":"KY","Zip":"41035","LATITUDE":38.673678,"LONGITUDE":-84.633222},
{"TYPE":"Affiliate Job Center","NAME":"Kentuck Manufactering Career Center","Street_Address":"160 Rochester Drive, Building W Airport industrial Center","City":"Louisville","State":"KY","Zip":"40214","LATITUDE":38.169947,"LONGITUDE":-85.759349},
{"TYPE":"Affiliate Job Center","NAME":"Union County Career Center","Street_Address":"4500 U.S. Highway 60 West","City":"Morganfield","State":"KY","Zip":"42437","LATITUDE":37.615690,"LONGITUDE":-87.950342},
{"TYPE":"Affiliate Job Center","NAME":"London - OET/WIA Local Office","Street_Address":"100 University Drive, KCTCS - London Campus","City":"London","State":"KY","Zip":"40741","LATITUDE":37.117309,"LONGITUDE":-84.061369},
{"TYPE":"Affiliate Job Center","NAME":"Murray Career Discovery Center","Street_Address":"208 South 5th Street","City":"Murray","State":"KY","Zip":"42071","LATITUDE":36.609734,"LONGITUDE":-88.302875},
{"TYPE":"Affiliate Job Center","NAME":"Hancock County Career Center","Street_Address":"1605 US Highway 60 West","City":"Hawesville","State":"KY","Zip":"42348","LATITUDE":37.912653,"LONGITUDE":-86.782312},
{"TYPE":"Affiliate Job Center","NAME":"Henderson Office of Employment & Training","Street_Address":"212 North Water Street, P.O. Box 1269","City":"Henderson","State":"KY","Zip":"42419","LATITUDE":37.841550,"LONGITUDE":-87.593018},
{"TYPE":"Affiliate Job Center","NAME":"Ohio County Career Center","Street_Address":"130 East Washington Street","City":"Hartford","State":"KY","Zip":"42347","LATITUDE":37.451150,"LONGITUDE":-86.906767},
{"TYPE":"Affiliate Job Center","NAME":"Middlesboro Office of Employment and Training","Street_Address":"725 North 19th Street, P.O. Drawer 578","City":"Middlesboro","State":"KY","Zip":"40965","LATITUDE":36.616277,"LONGITUDE":-83.713948},
{"TYPE":"Affiliate Job Center","NAME":"Harlan - Office of Employment and Training","Street_Address":"124 S Cumberland","City":"Harlan","State":"KY","Zip":"40831","LATITUDE":36.846660,"LONGITUDE":-83.323658},
{"TYPE":"Affiliate Job Center","NAME":"Central Kentucky Job Service Center","Street_Address":"595 South Keeneland","City":"Richmond","State":"KY","Zip":"40475","LATITUDE":37.772417,"LONGITUDE":-84.320767},
{"TYPE":"Affiliate Job Center","NAME":"Kentucky Career Center Springfield","Street_Address":"111 N Cross Main Street","City":"Springfield","State":"KY","Zip":"40069","LATITUDE":37.685500,"LONGITUDE":-85.221900},
{"TYPE":"Affiliate Job Center","NAME":"Kentucky Career Center - Pendleton Co.","Street_Address":"500 Chapel Street, Mailing address 2525 Highway 27 North","City":"Falmouth","State":"KY","Zip":"41040","LATITUDE":38.674689,"LONGITUDE":-84.332653},
{"TYPE":"Affiliate Job Center","NAME":"Green County Adult Learning Center","Street_Address":"416 Scottsville Street","City":"Greensburg","State":"KY","Zip":"42743","LATITUDE":37.261791,"LONGITUDE":-85.496357},
{"TYPE":"Affiliate Job Center","NAME":"Red Bird Mission - Beverly","Street_Address":"70 Queendale Center","City":"Beverly","State":"KY","Zip":"40913","LATITUDE":36.925200,"LONGITUDE":-83.578500},
{"TYPE":"Affiliate Job Center","NAME":"East Carter Adult Education Center","Street_Address":"520 East Main Street, PO Box 295","City":"Grayson","State":"KY","Zip":"41143","LATITUDE":38.330531,"LONGITUDE":-82.940085},
{"TYPE":"Affiliate Job Center","NAME":"Breathitt Co. Adult Education Center","Street_Address":"1127 Main Street","City":"Jackson","State":"KY","Zip":"41339","LATITUDE":37.557328,"LONGITUDE":-83.370770},
{"TYPE":"Affiliate Job Center","NAME":"Sandy Hook-Elliott Co. Adult Ed and GED Career Center","Street_Address":"101 South Kentucky 7, P.O. Box 324","City":"Sandy Hook","State":"KY","Zip":"41171","LATITUDE":38.125500,"LONGITUDE":-83.100200},
{"TYPE":"Affiliate Job Center","NAME":"Lakewood Family Resource Center","Street_Address":"265 Learning Place Lane","City":"Cecilia","State":"KY","Zip":"42724","LATITUDE":37.655400,"LONGITUDE":-85.981200},
{"TYPE":"Affiliate Job Center","NAME":"Prestonsburg - Office of Employment and Training","Street_Address":"686 North Lake Drive","City":"Prestonsburg","State":"KY","Zip":"41653","LATITUDE":37.671853,"LONGITUDE":-82.775879},
{"TYPE":"Affiliate Job Center","NAME":"Experience Works Inc.","Street_Address":"1029 Broadway, PO Box A","City":"Beattyville","State":"KY","Zip":"41311","LATITUDE":37.580619,"LONGITUDE":-83.703403},
{"TYPE":"Affiliate Job Center","NAME":"Hyden-LKLP Community Action Council","Street_Address":"121 Maple Street, P.O. Box 899","City":"Hyden","State":"KY","Zip":"41749","LATITUDE":37.163783,"LONGITUDE":-83.375332},
{"TYPE":"Affiliate Job Center","NAME":"Mt. Sterling  Office of Employment & Training","Street_Address":"108 Locust Street, 2nd Floor","City":"Mt. Sterling","State":"KY","Zip":"40353","LATITUDE":38.055231,"LONGITUDE":-83.941471},
{"TYPE":"Affiliate Job Center","NAME":"Madisonville Office of Employment & Training","Street_Address":"56 Federal Street","City":"Madisonville","State":"KY","Zip":"42431","LATITUDE":37.328954,"LONGITUDE":-87.497634},
{"TYPE":"Affiliate Job Center","NAME":"Knott County Adult Learning Center","Street_Address":"238 Hwy. 160 South, Room 311","City":"Hindman","State":"KY","Zip":"41822","LATITUDE":37.321400,"LONGITUDE":-82.961600},
{"TYPE":"Affiliate Job Center","NAME":"Knox County Adult Education","Street_Address":"133 Wall Street","City":"Barbourville","State":"KY","Zip":"40906","LATITUDE":36.867087,"LONGITUDE":-83.891489},
{"TYPE":"Affiliate Job Center","NAME":"Whitesburg-Office of Vocational Rehabilitation","Street_Address":"415 Highway 2034, Suite C","City":"Whitesburg","State":"KY","Zip":"41858","LATITUDE":37.117096,"LONGITUDE":-82.795974},
{"TYPE":"Affiliate Job Center","NAME":"Louisa-Lawrence County Adult Learning Center","Street_Address":"235 East Powhatan Street","City":"Louisa","State":"KY","Zip":"41230","LATITUDE":38.113465,"LONGITUDE":-82.601842},
{"TYPE":"Affiliate Job Center","NAME":"Pikeville-Office of Employment and Training","Street_Address":"138 College Street","City":"Pikeville","State":"KY","Zip":"41501","LATITUDE":37.477701,"LONGITUDE":-82.519963},
{"TYPE":"Affiliate Job Center","NAME":"Trigg County Adult Education Center","Street_Address":"202 Main Street","City":"Cadiz","State":"KY","Zip":"42211","LATITUDE":36.867222,"LONGITUDE":-87.798948},
{"TYPE":"Affiliate Job Center","NAME":"Kentucky Career Center - Carroll Co.","Street_Address":"1209 Highland Avenue, Suite E","City":"Carrollton","State":"KY","Zip":"41008","LATITUDE":38.681739,"LONGITUDE":-85.169730},
{"TYPE":"Affiliate Job Center","NAME":"Fivco Area Development District","Street_Address":"32 Fivco Court","City":"Grayson","State":"KY","Zip":"41143","LATITUDE":38.219100,"LONGITUDE":-82.844200},
{"TYPE":"Affiliate Job Center","NAME":"Bracken County Public Library","Street_Address":"310 West Miami Street, PO Box 305","City":"Brooksville","State":"KY","Zip":"41004","LATITUDE":38.687298,"LONGITUDE":-84.069188},
{"TYPE":"Affiliate Job Center","NAME":"Casey County - SCC Center","Street_Address":"3609 North US 127","City":"Liberty","State":"KY","Zip":"42539","LATITUDE":37.340800,"LONGITUDE":-84.899300},
{"TYPE":"Affiliate Job Center","NAME":"Office of Employment and Training -Columbia","Street_Address":"969 Campbellsville Road","City":"Columbia","State":"KY","Zip":"42728","LATITUDE":37.113274,"LONGITUDE":-85.300791},
{"TYPE":"Affiliate Job Center","NAME":"Career Advancement Center","Street_Address":"50 Career Way","City":"Central City","State":"KY","Zip":"42330","LATITUDE":37.237654,"LONGITUDE":-87.148697},
{"TYPE":"Affiliate Job Center","NAME":"Roberston County Library","Street_Address":"207 North Main Street, P.O. Box 282","City":"Mount Olivet","State":"KY","Zip":"41064","LATITUDE":38.513600,"LONGITUDE":-84.059000},
{"TYPE":"Affiliate Job Center","NAME":"Fleming County Public Library","Street_Address":"202 Bypass Blvd.","City":"Flemingsburg","State":"KY","Zip":"41041","LATITUDE":38.450900,"LONGITUDE":-83.760400},
{"TYPE":"Affiliate Job Center","NAME":"Lewis County Adult Education","Street_Address":"112 2nd Street, Suite 300","City":"Vanceburg","State":"KY","Zip":"41179","LATITUDE":38.603938,"LONGITUDE":-83.319713},
{"TYPE":"Affiliate Job Center","NAME":"Greenup County Adult and Family Learning Center","Street_Address":"226 West Main Street","City":"Greenup","State":"KY","Zip":"41144","LATITUDE":38.578780,"LONGITUDE":-82.837973},
{"TYPE":"Affiliate Job Center","NAME":"Jackson County Continuing Education","Street_Address":"654 Education Mountain Drive, P.O. Box 1390","City":"McKee","State":"KY","Zip":"40447","LATITUDE":37.430584,"LONGITUDE":-83.988729},
{"TYPE":"Affiliate Job Center","NAME":"Kentucky Career Center Monticello","Street_Address":"1500 North Main, Suite 168","City":"Monticello","State":"KY","Zip":"42633","LATITUDE":36.846933,"LONGITUDE":-84.837101},
{"TYPE":"Affiliate Job Center","NAME":"Nicholas County Schools Family Resource Center","Street_Address":"105 School Drive","City":"Carlisle","State":"KY","Zip":"40311","LATITUDE":38.316789,"LONGITUDE":-84.037706},
{"TYPE":"Affiliate Job Center","NAME":"Carl D. Perkins Job Corps Center","Street_Address":"478 Meadows Branch","City":"Prestonsburg","State":"KY","Zip":"41653-1501","LATITUDE":37.678681,"LONGITUDE":-82.829236},
{"TYPE":"Affiliate Job Center","NAME":"Frenchburg Job Corps Center","Street_Address":"6969 Tarr Ridge Road","City":"Frenchburg","State":"KY","Zip":"40322","LATITUDE":37.871300,"LONGITUDE":-83.635400},
{"TYPE":"Affiliate Job Center","NAME":"Big Sandy Area Community Action Program","Street_Address":"60 Court Street","City":"Allen","State":"KY","Zip":"41601","LATITUDE":37.615571,"LONGITUDE":-82.721734},
{"TYPE":"Affiliate Job Center","NAME":"Salyersville-Big Sandy Area Community Action Program","Street_Address":"131 South Church Street, P.O. Box 346","City":"Salyersville","State":"KY","Zip":"41465","LATITUDE":37.750600,"LONGITUDE":-83.068322},
{"TYPE":"Affiliate Job Center","NAME":"Inez-Big Sandy Area Community Action Program","Street_Address":"387 East Main Street, Suite 203","City":"Inez","State":"KY","Zip":"41224","LATITUDE":37.866500,"LONGITUDE":-82.537300},
{"TYPE":"Affiliate Job Center","NAME":"Pikeville-Big Sandy Area Community Action Program","Street_Address":"478 Town Mountain Road","City":"Pikeville","State":"KY","Zip":"41501","LATITUDE":37.495084,"LONGITUDE":-82.491002},
{"TYPE":"Affiliate Job Center","NAME":"Northeast Community Action Agency","Street_Address":"400 Main Street, Rocky J. Adkins Public Library. P.O. Box 775","City":"Sandy Hook","State":"KY","Zip":"41171","LATITUDE":38.086029,"LONGITUDE":-83.126675},
{"TYPE":"Affiliate Job Center","NAME":"Northeast Kentucky Community Action Council","Street_Address":"1103 South State Highway 7","City":"Grayson","State":"KY","Zip":"41143","LATITUDE":38.314096,"LONGITUDE":-82.956513},
{"TYPE":"Affiliate Job Center","NAME":"Northeast Kentucky Community Action Agency Inc.","Street_Address":"539 Hitchens Avenue","City":"Olive Hill","State":"KY","Zip":"41164","LATITUDE":38.299842,"LONGITUDE":-83.186082},
{"TYPE":"Affiliate Job Center","NAME":"Harlan County Community Action Agency","Street_Address":"319 Camden Street, P.O. Box 1556","City":"Harlan","State":"KY","Zip":"40831","LATITUDE":36.842687,"LONGITUDE":-83.327439},
{"TYPE":"Affiliate Job Center","NAME":"Middle Kentucky Community Action Partnership","Street_Address":"1 Shepherd Lane, Room 104","City":"Booneville","State":"KY","Zip":"41314","LATITUDE":37.361100,"LONGITUDE":-83.488700},
{"TYPE":"Affiliate Job Center","NAME":"Big Sandy Community and Technical College- Adult Education","Street_Address":"One Bert T Combs Drive","City":"Prestonsburg","State":"KY","Zip":"41653","LATITUDE":37.686147,"LONGITUDE":-82.781244},
{"TYPE":"Affiliate Job Center","NAME":"Hyden-Hazard Community and Technical College-Leslie County Center","Street_Address":"108 Maple Street","City":"Hyden","State":"KY","Zip":"41749","LATITUDE":37.163894,"LONGITUDE":-83.375232},
{"TYPE":"Affiliate Job Center","NAME":"Southeast Kentucky Community and Technical College-Middlesboro Campus","Street_Address":"1300 Chichester Ave.","City":"Middlesboro","State":"KY","Zip":"40965","LATITUDE":36.612505,"LONGITUDE":-83.728475},
{"TYPE":"Affiliate Job Center","NAME":"Daniel Boone Community Action Agency Inc.","Street_Address":"5748 Highway 290","City":"McKee","State":"KY","Zip":"40447","LATITUDE":37.386400,"LONGITUDE":-84.031000},
{"TYPE":"Affiliate Job Center","NAME":"Paintsville-Big Sandy Area Community Action Program","Street_Address":"230 Court Street","City":"Paintsville","State":"KY","Zip":"41240","LATITUDE":37.814158,"LONGITUDE":-82.807045},
{"TYPE":"Affiliate Job Center","NAME":"Office of Employment and Training","Street_Address":"1121 Louisville Road, Suite 6","City":"Frankfort","State":"KY","Zip":"40601","LATITUDE":38.178311,"LONGITUDE":-84.898941},
{"TYPE":"Affiliate Job Center","NAME":"Williamsburg Community Based Services","Street_Address":"1000 S Highway 25 W","City":"Williamsburg","State":"KY","Zip":"40769","LATITUDE":36.732457,"LONGITUDE":-84.154959},
{"TYPE":"Affiliate Job Center","NAME":"Nicholas County Center Community Action Council","Street_Address":"149 Scrubgrass Road","City":"Carlisle","State":"KY","Zip":"40311","LATITUDE":38.317903,"LONGITUDE":-84.008590},
{"TYPE":"Affiliate Job Center","NAME":"Central Kentucky Job Center - Powell County School Board Annex","Street_Address":"691 Breckenridge Street","City":"Stanton","State":"KY","Zip":"40380","LATITUDE":37.851680,"LONGITUDE":-83.861002},
{"TYPE":"Affiliate Job Center","NAME":"Cumberland-Southeast Kentucky Community and Technical College-Cumberland Campus","Street_Address":"700 College Road","City":"Cumberland","State":"KY","Zip":"40823","LATITUDE":36.970467,"LONGITUDE":-82.995114},
{"TYPE":"Affiliate Job Center","NAME":"Hazard-Hazard Community and Technical College","Street_Address":"One Community College Drive","City":"Hazard","State":"KY","Zip":"41701","LATITUDE":37.233625,"LONGITUDE":-83.174507},
{"TYPE":"Affiliate Job Center","NAME":"West Liberty-Gateway Community Service Organization","Street_Address":"151 University Drive, PO Box 367","City":"West Liberty","State":"KY","Zip":"41472","LATITUDE":37.919800,"LONGITUDE":-83.267400},
{"TYPE":"Comprehensive Job Center","NAME":"KentuckianaWorks One Stop","Street_Address":"610 West Cedar Street","City":"Louisville","State":"KY","Zip":"40202","LATITUDE":38.252785,"LONGITUDE":-85.760817},
{"TYPE":"Comprehensive Job Center","NAME":"Leitchfield Career Center","Street_Address":"125 East Market, Suite 21","City":"Leitchfield","State":"KY","Zip":"42754","LATITUDE":37.478661,"LONGITUDE":-86.292945},
{"TYPE":"Comprehensive Job Center","NAME":"Central Kentucky Job Center - Danville","Street_Address":"121 East Broadway","City":"Danville","State":"KY","Zip":"40422-0047","LATITUDE":37.647193,"LONGITUDE":-84.769853},
{"TYPE":"Comprehensive Job Center","NAME":"Kentucky Career Center - Corbin","Street_Address":"310 Roy Kidd Avenue","City":"Corbin","State":"KY","Zip":"40701","LATITUDE":36.949917,"LONGITUDE":-84.094444},
{"TYPE":"Comprehensive Job Center","NAME":"Central Kentucky Job Center - Georgetown","Street_Address":"1000 West Main Street, Suite 5","City":"Georgetown","State":"KY","Zip":"40324","LATITUDE":38.209364,"LONGITUDE":-84.575481},
{"TYPE":"Comprehensive Job Center","NAME":"Central Kentucky Career Center","Street_Address":"15 West Lexington Avenue","City":"Winchester","State":"KY","Zip":"40391","LATITUDE":37.991917,"LONGITUDE":-84.177940},
{"TYPE":"Comprehensive Job Center","NAME":"Kentucky Career Center - Russell Co.","Street_Address":"2384 Lakeway Drive, P.O. Box 1570","City":"Russell Springs","State":"KY","Zip":"42642","LATITUDE":37.066092,"LONGITUDE":-85.073728},
{"TYPE":"Comprehensive Job Center","NAME":"Kentucky Career Center, Lebanon","Street_Address":"145 Cemetery Road, Suite 4","City":"Lebanon","State":"KY","Zip":"40033","LATITUDE":37.554853,"LONGITUDE":-85.269643},
{"TYPE":"Comprehensive Job Center","NAME":"Ashland One Stop Center","Street_Address":"1844 Carter Avenue","City":"Ashland","State":"KY","Zip":"41101","LATITUDE":38.476388,"LONGITUDE":-82.637445},
{"TYPE":"Comprehensive Job Center","NAME":"Clay County JobSight, Daniel Boone Community Action Agency Inc.","Street_Address":"1535 Shamrock Road","City":"Manchester","State":"KY","Zip":"40962","LATITUDE":37.133500,"LONGITUDE":-83.765200},
{"TYPE":"Comprehensive Job Center","NAME":"Paducah Career Center","Street_Address":"416 S 6th Street","City":"Paducah","State":"KY","Zip":"42003","LATITUDE":37.082475,"LONGITUDE":-88.598414},
{"TYPE":"Comprehensive Job Center","NAME":"Kentucky Career Center JobSight-Perry County","Street_Address":"412 Roy Campbell Drive","City":"Hazard","State":"KY","Zip":"41701","LATITUDE":37.274700,"LONGITUDE":-83.226181},
{"TYPE":"Comprehensive Job Center","NAME":"Morehead Career Center","Street_Address":"126 Bradley Avenue","City":"Morehead","State":"KY","Zip":"40351","LATITUDE":38.179136,"LONGITUDE":-83.436742},
{"TYPE":"Comprehensive Job Center","NAME":"Kentucky Career Center, Glasgow","Street_Address":"445 North Green Street","City":"Glasgow","State":"KY","Zip":"42141","LATITUDE":37.000322,"LONGITUDE":-85.909075},
{"TYPE":"Comprehensive Job Center","NAME":"Central Kentucky Career Center - Richmond","Street_Address":"595 South Keeneland Drive","City":"Richmond","State":"KY","Zip":"40475","LATITUDE":37.772417,"LONGITUDE":-84.320767},
{"TYPE":"Comprehensive Job Center","NAME":"Central Kentucky Job Center - Lexington","Street_Address":"1055 Industry Road, 2nd Floor","City":"Lexington","State":"KY","Zip":"40505-3823","LATITUDE":38.044646,"LONGITUDE":-84.460675},
{"TYPE":"Comprehensive Job Center","NAME":"Elizabethtown Career Center","Street_Address":"916 North Mulberry, P.O. Box 1386","City":"Elizabethtown","State":"KY","Zip":"42702-1386","LATITUDE":37.705498,"LONGITUDE":-85.845275},
{"TYPE":"Comprehensive Job Center","NAME":"Bell-Whitley Community Action Jobsight Agency","Street_Address":"129 Pine Street, P.O. Box 159","City":"Pineville","State":"KY","Zip":"40977","LATITUDE":36.763831,"LONGITUDE":-83.693292},
{"TYPE":"Comprehensive Job Center","NAME":"KentuckianaWorks - Shepherdsville","Street_Address":"505 Buffalo Run Road, Suite 100","City":"Shepherdsville","State":"KY","Zip":"40165-6078","LATITUDE":37.973200,"LONGITUDE":-85.692600},
{"TYPE":"Comprehensive Job Center","NAME":"One Stop Northern Kentucky","Street_Address":"320 Garrard Street","City":"Covington","State":"KY","Zip":"41011","LATITUDE":39.088046,"LONGITUDE":-84.506205},
{"TYPE":"Comprehensive Job Center","NAME":"JobNet Career Center","Street_Address":"755 Industrial Road","City":"Madisonville","State":"KY","Zip":"42431","LATITUDE":37.359439,"LONGITUDE":-87.549673},
{"TYPE":"Comprehensive Job Center","NAME":"Mayfield Career Center","Street_Address":"319 South 7th St.","City":"Mayfield","State":"KY","Zip":"42066-0449","LATITUDE":36.739061,"LONGITUDE":-88.635920},
{"TYPE":"Comprehensive Job Center","NAME":"KentuckianaWorks  One Stop - Nia Center","Street_Address":"2900 West Broadway, Suite 100","City":"Louisville","State":"KY","Zip":"40211-1279","LATITUDE":38.249557,"LONGITUDE":-85.800041},
{"TYPE":"Comprehensive Job Center","NAME":"Kentucky Career Center - Green River Region - Owensboro","Street_Address":"121 East Second Street","City":"Owensboro","State":"KY","Zip":"42303","LATITUDE":37.774980,"LONGITUDE":-87.110944},
{"TYPE":"Comprehensive Job Center","NAME":"Kentucky Career Center - Campbellsville","Street_Address":"1311 East Broadway, Suite C, Elmhurst Plaza","City":"Campbellsville","State":"KY","Zip":"42718","LATITUDE":37.354558,"LONGITUDE":-85.328102},
{"TYPE":"Comprehensive Job Center","NAME":"Kentucky Career Center - Somerset","Street_Address":"410 East Mount Vernon Street, P.O. Box 29","City":"Somerset","State":"KY","Zip":"42502-0029","LATITUDE":37.093921,"LONGITUDE":-84.600073},
{"TYPE":"Comprehensive Job Center","NAME":"Bardstown Career Center","Street_Address":"860 West Stephen Foster Avenue","City":"Bardstown","State":"KY","Zip":"40004","LATITUDE":37.810834,"LONGITUDE":-85.480768},
{"TYPE":"Comprehensive Job Center","NAME":"Bowling Green Career Center","Street_Address":"803 Chestnut Street","City":"Bowling Green","State":"KY","Zip":"42101","LATITUDE":36.992749,"LONGITUDE":-86.438533},
{"TYPE":"Comprehensive Job Center","NAME":"One Stop Northern Kentucky","Street_Address":"8020 Veterans Memorial Drive","City":"Florence","State":"KY","Zip":"41042","LATITUDE":38.996437,"LONGITUDE":-84.641660},
{"TYPE":"Comprehensive Job Center","NAME":"Maysville Career Center","Street_Address":"201 Government Street, Suite 101","City":"Maysville","State":"KY","Zip":"41056","LATITUDE":38.645115,"LONGITUDE":-83.761152},
{"TYPE":"Comprehensive Job Center","NAME":"Breathitt Career Center","Street_Address":"110 Riverfront Drive, P.O. Box 1128","City":"Hopkinsville","State":"KY","Zip":"42240","LATITUDE":36.870723,"LONGITUDE":-87.488037},
{"TYPE":"Comprehensive Job Center","NAME":"Grant Business & Career Solution Center","Street_Address":"205 Main Street","City":"Colfax","State":"LA","Zip":"71417","LATITUDE":31.516943,"LONGITUDE":-92.712242},
{"TYPE":"Comprehensive Job Center","NAME":"St. Bernard Career Solutions Center","Street_Address":"8201 W. Judge Perez Dr.","City":"Chalmette","State":"LA","Zip":"70043","LATITUDE":29.957568,"LONGITUDE":-89.988871},
{"TYPE":"Comprehensive Job Center","NAME":"Bienville Business & Career Solution Center-Satellite","Street_Address":"1819 South Railroad Avenue, Arcadia Town Hall","City":"Arcadia","State":"LA","Zip":"71001","LATITUDE":32.547765,"LONGITUDE":-92.921456},
{"TYPE":"Comprehensive Job Center","NAME":"Franklin Business & Career Solutions Center","Street_Address":"3290 Front Street","City":"Winnsboro","State":"LA","Zip":"71295","LATITUDE":32.156943,"LONGITUDE":-91.715396},
{"TYPE":"Comprehensive Job Center","NAME":"Calcasieu Business and Career Solutions Center","Street_Address":"2424 Third Street","City":"Lake Charles","State":"LA","Zip":"70601","LATITUDE":30.223868,"LONGITUDE":-93.182052},
{"TYPE":"Comprehensive Job Center","NAME":"St. John Business and Career Solutions Center","Street_Address":"975 Cambridge Drive","City":"LaPlace","State":"LA","Zip":"70068","LATITUDE":30.071612,"LONGITUDE":-90.485778},
{"TYPE":"Comprehensive Job Center","NAME":"Arcadia Town Hall","Street_Address":"1819 South Railroad Avenue","City":"Arcadia","State":"LA","Zip":"71001","LATITUDE":32.547765,"LONGITUDE":-92.921456},
{"TYPE":"Comprehensive Job Center","NAME":"Jefferson Career Solutions Center - East","Street_Address":"1801 Airline Drive, Suite A","City":"Metairie","State":"LA","Zip":"70001","LATITUDE":29.973809,"LONGITUDE":-90.145359},
{"TYPE":"Comprehensive Job Center","NAME":"JOB 1 - Career Solutions Center - (Eastbank Orleans)","Street_Address":"3400 Tulane Avenue, Goodwill Building 2nd Floor","City":"New Orleans","State":"LA","Zip":"70119","LATITUDE":29.965383,"LONGITUDE":-90.098729},
{"TYPE":"Comprehensive Job Center","NAME":"St. Charles Business and Career Solutions Center","Street_Address":"737 Paul Maillard Road, Suite 2A; P.O. Box 1010, Hahnville, LA 70057 (Mailing Address)","City":"Luling","State":"LA","Zip":"70070","LATITUDE":29.926586,"LONGITUDE":-90.370129},
{"TYPE":"Comprehensive Job Center","NAME":"East Baton Rouge South Career Solutions Center","Street_Address":"1991 Wooddale Boulevard","City":"Baton Rouge","State":"LA","Zip":"70806","LATITUDE":30.467316,"LONGITUDE":-91.114788},
{"TYPE":"Comprehensive Job Center","NAME":"Lafayette Business & Career Solution Center","Street_Address":"706 East Vermilion Street","City":"Lafayette","State":"LA","Zip":"70501","LATITUDE":30.221008,"LONGITUDE":-92.012502},
{"TYPE":"Comprehensive Job Center","NAME":"East Carroll Career Solutions Center","Street_Address":"409 2nd Street, Suite 6","City":"Lake Providence","State":"LA","Zip":"71254","LATITUDE":32.802918,"LONGITUDE":-91.173203},
{"TYPE":"Comprehensive Job Center","NAME":"Iberville Career Solutions Center","Street_Address":"23425 Railroad Avenue, Suite 1","City":"Plaquemine","State":"LA","Zip":"70764","LATITUDE":30.290572,"LONGITUDE":-91.236626},
{"TYPE":"Comprehensive Job Center","NAME":"Jackson Business Career and Solutions Center","Street_Address":"182 Industrial Drive, P.O. Box 97","City":"Jonesboro","State":"LA","Zip":"71251","LATITUDE":32.215978,"LONGITUDE":-92.711609},
{"TYPE":"Comprehensive Job Center","NAME":"Acadia Career Solutions Center","Street_Address":"11 North Parkerson Avenue","City":"Crowley","State":"LA","Zip":"70526","LATITUDE":30.209393,"LONGITUDE":-92.371008},
{"TYPE":"Comprehensive Job Center","NAME":"Allen Career Solutions Center","Street_Address":"602 Court St, P.O. Box 1140","City":"Oberlin","State":"LA","Zip":"70655","LATITUDE":30.620539,"LONGITUDE":-92.771394},
{"TYPE":"Comprehensive Job Center","NAME":"Assumption Business & Career Solutions Center","Street_Address":"205 Hwy 1008","City":"Napoleonville","State":"LA","Zip":"70390","LATITUDE":29.938957,"LONGITUDE":-91.031235},
{"TYPE":"Comprehensive Job Center","NAME":"Lafourche Career Solutions Center","Street_Address":"1445 Martin Luther King Blvd","City":"Thibodaux","State":"LA","Zip":"70301","LATITUDE":29.778841,"LONGITUDE":-90.813391},
{"TYPE":"Comprehensive Job Center","NAME":"Union Career Solutions Center","Street_Address":"303-B East Water Street","City":"Farmerville","State":"LA","Zip":"71241","LATITUDE":32.773262,"LONGITUDE":-92.402716},
{"TYPE":"Comprehensive Job Center","NAME":"Washington Career Solutions Center","Street_Address":"420 Avenue B","City":"Bogalusa","State":"LA","Zip":"70427","LATITUDE":30.778686,"LONGITUDE":-89.866092},
{"TYPE":"Comprehensive Job Center","NAME":"East & West Feliciana Career Solutions Center","Street_Address":"5681 Commerce Street, Suite E; P.O. Box 23","City":"St. Francisville","State":"LA","Zip":"70775","LATITUDE":30.784510,"LONGITUDE":-91.379367},
{"TYPE":"Comprehensive Job Center","NAME":"Webster Career Solutions Center","Street_Address":"310 Homer Road","City":"Minden","State":"LA","Zip":"71055","LATITUDE":32.621588,"LONGITUDE":-93.275560},
{"TYPE":"Comprehensive Job Center","NAME":"Madison Career Solutions Center","Street_Address":"405 North Cedar Street","City":"Tallulah","State":"LA","Zip":"71282","LATITUDE":32.411231,"LONGITUDE":-91.185047},
{"TYPE":"Comprehensive Job Center","NAME":"East St. Mary Career Solutions Center","Street_Address":"900 Youngs Road","City":"Morgan City","State":"LA","Zip":"70380","LATITUDE":29.691842,"LONGITUDE":-91.199443},
{"TYPE":"Comprehensive Job Center","NAME":"West Carroll Career Solution Center","Street_Address":"310 Skinner Lane","City":"Oak Grove","State":"LA","Zip":"71263","LATITUDE":32.840400,"LONGITUDE":-91.383100},
{"TYPE":"Comprehensive Job Center","NAME":"Natchitoches Career Solutions Center East","Street_Address":"303 Bienville Street","City":"Natchitoches","State":"LA","Zip":"71457","LATITUDE":31.752090,"LONGITUDE":-93.081642},
{"TYPE":"Comprehensive Job Center","NAME":"JOB 1 - Career Solutions (Algiers)","Street_Address":"3520 General DeGaulle Drive, Suite 1030","City":"New Orleans","State":"LA","Zip":"70114","LATITUDE":29.925262,"LONGITUDE":-90.021078},
{"TYPE":"Comprehensive Job Center","NAME":"Plaquemines Business & Career Solutions Center","Street_Address":"1112 Engineers Road, Room 19","City":"Belle Chasse","State":"LA","Zip":"70037","LATITUDE":29.860201,"LONGITUDE":-90.019673},
{"TYPE":"Comprehensive Job Center","NAME":"Pointe Coupee Career Solutions Center","Street_Address":"206 Court Street","City":"New Roads","State":"LA","Zip":"70760","LATITUDE":30.694694,"LONGITUDE":-91.432913},
{"TYPE":"Comprehensive Job Center","NAME":"Red River Career Solutions Center","Street_Address":"615 E. Carroll Street","City":"Coushatta","State":"LA","Zip":"71019","LATITUDE":32.014411,"LONGITUDE":-93.344501},
{"TYPE":"Comprehensive Job Center","NAME":"Richland Career Solutions Center","Street_Address":"146 Christian Drive","City":"Rayville","State":"LA","Zip":"71269","LATITUDE":32.459859,"LONGITUDE":-91.757811},
{"TYPE":"Comprehensive Job Center","NAME":"St. James Business and Career Solutions Center","Street_Address":"2631 Highway 20 West, Post Office Box 414- Vacherie","City":"Vacherie","State":"LA","Zip":"70090","LATITUDE":29.984797,"LONGITUDE":-90.721507},
{"TYPE":"Comprehensive Job Center","NAME":"Saint Tammany Business & Career Solutions Center","Street_Address":"524 Gause Blvd.","City":"Slidell","State":"LA","Zip":"70458","LATITUDE":30.284852,"LONGITUDE":-89.775745},
{"TYPE":"Comprehensive Job Center","NAME":"Livingston Career Solutions Center","Street_Address":"9384 Florida Blvd., Suite B; P.O. Box 1047 (mailing)","City":"Walker","State":"LA","Zip":"70785","LATITUDE":30.482827,"LONGITUDE":-90.924740},
{"TYPE":"Comprehensive Job Center","NAME":"Jefferson Career Solutions - West","Street_Address":"1900 Lafayette Street, Suite 1","City":"Gretna","State":"LA","Zip":"70053","LATITUDE":29.905258,"LONGITUDE":-90.053262},
{"TYPE":"Comprehensive Job Center","NAME":"Bienville Career Solutions Center","Street_Address":"2434 Manning Street, P.O. Box 276","City":"Ringgold","State":"LA","Zip":"71068","LATITUDE":32.328737,"LONGITUDE":-93.285905},
{"TYPE":"Comprehensive Job Center","NAME":"Tensas Career Solutions Center","Street_Address":"107 Arts Drive","City":"St. Joseph","State":"LA","Zip":"71366","LATITUDE":31.923400,"LONGITUDE":-91.249000},
{"TYPE":"Comprehensive Job Center","NAME":"Claiborne Business & Career Solutions Center","Street_Address":"300 East Main","City":"Homer","State":"LA","Zip":"71040","LATITUDE":32.786012,"LONGITUDE":-93.054504},
{"TYPE":"Comprehensive Job Center","NAME":"Desoto Coordinating and Development Corporation","Street_Address":"142 Lake Road","City":"Mansfield","State":"LA","Zip":"71052","LATITUDE":32.038782,"LONGITUDE":-93.695281},
{"TYPE":"Comprehensive Job Center","NAME":"Sabine Career Solutions Center","Street_Address":"1125 West Mississippi Avenue, Suite A","City":"Many","State":"LA","Zip":"71449","LATITUDE":31.565779,"LONGITUDE":-93.478759},
{"TYPE":"Comprehensive Job Center","NAME":"Caddo Career Solutions Center","Street_Address":"2900 Dowdell Street","City":"Shreveport","State":"LA","Zip":"71103","LATITUDE":32.484526,"LONGITUDE":-93.760753},
{"TYPE":"Comprehensive Job Center","NAME":"Tangipahoa Business and Career Solutions Center","Street_Address":"1745 SW Railroad Avenue, Suite 201","City":"Hammond","State":"LA","Zip":"70403","LATITUDE":30.485426,"LONGITUDE":-90.456691},
{"TYPE":"Comprehensive Job Center","NAME":"Avoyelles Career Solutions Center","Street_Address":"320 Cottage Street","City":"Marksville","State":"LA","Zip":"71351","LATITUDE":31.125663,"LONGITUDE":-92.073206},
{"TYPE":"Comprehensive Job Center","NAME":"Ascension Career Solutions Center","Street_Address":"1721 South Burnside Avenue","City":"Gonzales","State":"LA","Zip":"70737","LATITUDE":30.219703,"LONGITUDE":-90.920664},
{"TYPE":"Comprehensive Job Center","NAME":"Bossier Career Solutions","Street_Address":"4000 Viking Drive, Suite B-1","City":"Bossier City","State":"LA","Zip":"71111","LATITUDE":32.550843,"LONGITUDE":-93.687748},
{"TYPE":"Comprehensive Job Center","NAME":"Evangeline Career Solutions Center","Street_Address":"306 West Main Street, P O Box 1003 (Mailing Address)","City":"Ville Platte","State":"LA","Zip":"70586","LATITUDE":30.690423,"LONGITUDE":-92.279180},
{"TYPE":"Comprehensive Job Center","NAME":"St. Landry Career Solutions Center","Street_Address":"1305 Diesi Street","City":"Opelousas","State":"LA","Zip":"70570","LATITUDE":30.516642,"LONGITUDE":-92.071480},
{"TYPE":"Comprehensive Job Center","NAME":"West St. Mary Career Solutions Center","Street_Address":"600 Main Street","City":"Franklin","State":"LA","Zip":"70538","LATITUDE":29.791595,"LONGITUDE":-91.500267},
{"TYPE":"Comprehensive Job Center","NAME":"Vermilion Career Solutions Center","Street_Address":"1301 Clover Street","City":"Abbeville","State":"LA","Zip":"70510","LATITUDE":29.977731,"LONGITUDE":-92.122660},
{"TYPE":"Comprehensive Job Center","NAME":"Catahoula Career Solutions Center","Street_Address":"311 First Street","City":"Jonesville","State":"LA","Zip":"71343","LATITUDE":31.627711,"LONGITUDE":-91.814184},
{"TYPE":"Comprehensive Job Center","NAME":"LaSalle Career Solutions Center","Street_Address":"1050 Courthouse Street, Room 25","City":"Jena","State":"LA","Zip":"71342","LATITUDE":31.684943,"LONGITUDE":-92.131940},
{"TYPE":"Comprehensive Job Center","NAME":"Winn Career Solutions Center","Street_Address":"1206 Lafayette Street","City":"Winnfield","State":"LA","Zip":"71483","LATITUDE":31.924814,"LONGITUDE":-92.629343},
{"TYPE":"Comprehensive Job Center","NAME":"St. Martin Parish Career Solutions Center","Street_Address":"215 Evangeline Blvd.","City":"St. Martinville","State":"LA","Zip":"70582","LATITUDE":30.122209,"LONGITUDE":-91.828335},
{"TYPE":"Comprehensive Job Center","NAME":"Terrebonne Business and Career Solutions Center","Street_Address":"807  Barrow Street, P.O. Box 4236  (70361)","City":"Houma","State":"LA","Zip":"70360","LATITUDE":29.592490,"LONGITUDE":-90.719861},
{"TYPE":"Comprehensive Job Center","NAME":"East Baton Rouge North Career Solutions Center","Street_Address":"4523 Plank Road","City":"Baton Rouge","State":"LA","Zip":"70805","LATITUDE":30.491079,"LONGITUDE":-91.156173},
{"TYPE":"Comprehensive Job Center","NAME":"Beauregard Business & Career Solutions Center","Street_Address":"1102 West First Street","City":"DeRidder","State":"LA","Zip":"70634","LATITUDE":30.846970,"LONGITUDE":-93.298334},
{"TYPE":"Comprehensive Job Center","NAME":"Morehouse Career Solutions Center","Street_Address":"250 Holt Street","City":"Bastrop","State":"LA","Zip":"71220","LATITUDE":32.779671,"LONGITUDE":-91.889701},
{"TYPE":"Comprehensive Job Center","NAME":"Ouachita Career Solutions Center","Street_Address":"1162 Oliver Road, Suite 9","City":"Monroe","State":"LA","Zip":"71201","LATITUDE":32.524002,"LONGITUDE":-92.104558},
{"TYPE":"Comprehensive Job Center","NAME":"Iberia Career Solutions Center","Street_Address":"601 Ember Dr.","City":"New Iberia","State":"LA","Zip":"70560","LATITUDE":30.036518,"LONGITUDE":-91.869105},
{"TYPE":"Comprehensive Job Center","NAME":"Rapides Business and Career Solutions Center","Street_Address":"5610 B Coliseum Blvd.","City":"Alexandria","State":"LA","Zip":"71303","LATITUDE":31.301100,"LONGITUDE":-92.503300},
{"TYPE":"Comprehensive Job Center","NAME":"Lincoln Career Solutions Center","Street_Address":"307 North Homer Street, Suite 306","City":"Ruston","State":"LA","Zip":"71270","LATITUDE":32.531133,"LONGITUDE":-92.643918},
{"TYPE":"Comprehensive Job Center","NAME":"Concordia Business & Career Solutions Center","Street_Address":"107 N. E.E. Wallace Blvd","City":"Ferriday","State":"LA","Zip":"71334","LATITUDE":31.629991,"LONGITUDE":-91.554902},
{"TYPE":"Affiliate Job Center","NAME":"North Shore Career Center of Gloucester","Street_Address":"5 Pleasant Street","City":"Gloucester","State":"MA","Zip":"01930","LATITUDE":42.612994,"LONGITUDE":-70.661699},
{"TYPE":"Affiliate Job Center","NAME":"Gardner Career Center","Street_Address":"25 Main Street","City":"Gardner","State":"MA","Zip":"01440","LATITUDE":42.575394,"LONGITUDE":-71.995068},
{"TYPE":"Affiliate Job Center","NAME":"Career Source Chelsea (Satellite)","Street_Address":"4 Gerrish Ave","City":"Chelsea","State":"MA","Zip":"02150","LATITUDE":42.394500,"LONGITUDE":-71.030880},
{"TYPE":"Comprehensive Job Center","NAME":"BerkshireWorks - Pittsfield","Street_Address":"160 North Street","City":"Pittsfield","State":"MA","Zip":"01201","LATITUDE":42.450855,"LONGITUDE":-73.253130},
{"TYPE":"Comprehensive Job Center","NAME":"Attleboro Career Center","Street_Address":"67 Mechanic Street","City":"Attleboro","State":"MA","Zip":"02703","LATITUDE":41.944059,"LONGITUDE":-71.292464},
{"TYPE":"Comprehensive Job Center","NAME":"Fall River Career Center","Street_Address":"446 North Main Street","City":"Fall River","State":"MA","Zip":"02720","LATITUDE":41.708183,"LONGITUDE":-71.154654},
{"TYPE":"Comprehensive Job Center","NAME":"CareerPoint","Street_Address":"850 High Street","City":"Holyoke","State":"MA","Zip":"01040","LATITUDE":42.196628,"LONGITUDE":-72.618058},
{"TYPE":"Comprehensive Job Center","NAME":"Boston Career Link","Street_Address":"1010 Harrison Avenue","City":"Boston","State":"MA","Zip":"02119","LATITUDE":42.331769,"LONGITUDE":-71.079677},
{"TYPE":"Comprehensive Job Center","NAME":"North Shore Career Center of Lynn","Street_Address":"181 Union Street","City":"Lynn","State":"MA","Zip":"01901","LATITUDE":42.466605,"LONGITUDE":-70.942052},
{"TYPE":"Comprehensive Job Center","NAME":"JobNet","Street_Address":"210 South Street, 1st Floor","City":"Boston","State":"MA","Zip":"02111","LATITUDE":42.350232,"LONGITUDE":-71.057480},
{"TYPE":"Comprehensive Job Center","NAME":"North Shore Career Center of Salem","Street_Address":"70 Washington Street, 1st Floor","City":"Salem","State":"MA","Zip":"01970","LATITUDE":42.522236,"LONGITUDE":-70.895888},
{"TYPE":"Comprehensive Job Center","NAME":"Employment and Training Resources","Street_Address":"1671 Worcester Rd","City":"Framingham","State":"MA","Zip":"02460","LATITUDE":42.297047,"LONGITUDE":-71.481886},
{"TYPE":"Comprehensive Job Center","NAME":"Workforce Central - Milford","Street_Address":"425 Fortune Blvd., Suite 201","City":"Milford","State":"MA","Zip":"01757","LATITUDE":42.157263,"LONGITUDE":-71.493623},
{"TYPE":"Comprehensive Job Center","NAME":"Franklin/Hampshire Career Center","Street_Address":"178 Industrial Drive, Suite 1","City":"Northampton","State":"MA","Zip":"01060","LATITUDE":42.336030,"LONGITUDE":-72.632112},
{"TYPE":"Comprehensive Job Center","NAME":"Greater New Bedford Career Center","Street_Address":"618 Acushnet Avenue","City":"New Bedford","State":"MA","Zip":"02740","LATITUDE":41.643644,"LONGITUDE":-70.926379},
{"TYPE":"Comprehensive Job Center","NAME":"CareerWorks","Street_Address":"34 School Street","City":"Brockton","State":"MA","Zip":"02301","LATITUDE":42.083200,"LONGITUDE":-71.019346},
{"TYPE":"Comprehensive Job Center","NAME":"The Work Place","Street_Address":"29 Winter Street, 4th Floor","City":"Boston","State":"MA","Zip":"02108","LATITUDE":42.355956,"LONGITUDE":-71.061467},
{"TYPE":"Comprehensive Job Center","NAME":"Career Center of Lowell","Street_Address":"107 Merrimack","City":"Lowell","State":"MA","Zip":"01852","LATITUDE":42.645800,"LONGITUDE":-71.312000},
{"TYPE":"Comprehensive Job Center","NAME":"North Central Career Center","Street_Address":"100 Erdman Way","City":"Leominster","State":"MA","Zip":"01453","LATITUDE":42.547880,"LONGITUDE":-71.759808},
{"TYPE":"Comprehensive Job Center","NAME":"FutureWorks Career Center","Street_Address":"One Federal Street, Bldg. 103-3","City":"Springfield","State":"MA","Zip":"01105","LATITUDE":42.108139,"LONGITUDE":-72.577010},
{"TYPE":"Comprehensive Job Center","NAME":"Quincy Career Center","Street_Address":"152 Parking Way","City":"Quincy","State":"MA","Zip":"02169","LATITUDE":42.245523,"LONGITUDE":-71.003023},
{"TYPE":"Comprehensive Job Center","NAME":"Plymouth Career Center","Street_Address":"36 Cordage Park Circle, Suite 200","City":"Plymouth","State":"MA","Zip":"02360","LATITUDE":41.978276,"LONGITUDE":-70.689068},
{"TYPE":"Comprehensive Job Center","NAME":"Workforce Central Career Center - Worcester","Street_Address":"44 Front Street, 6th Floor","City":"Worcester","State":"MA","Zip":"01608","LATITUDE":42.263157,"LONGITUDE":-71.801521},
{"TYPE":"Comprehensive Job Center","NAME":"The Career Place","Street_Address":"100 Sylvan Rd, Suite G-100","City":"Woburn","State":"MA","Zip":"01801","LATITUDE":42.499019,"LONGITUDE":-71.162793},
{"TYPE":"Comprehensive Job Center","NAME":"Career Opportunities Hyannis","Street_Address":"88 North Street","City":"Hyannis","State":"MA","Zip":"02601","LATITUDE":41.653296,"LONGITUDE":-70.285902},
{"TYPE":"Comprehensive Job Center","NAME":"ValleyWorks Career Center - Lawrence","Street_Address":"439 South Union Street, Heritage Place Building 2, Suite 106","City":"Lawrence","State":"MA","Zip":"01843","LATITUDE":42.691586,"LONGITUDE":-71.153422},
{"TYPE":"Comprehensive Job Center","NAME":"Career Source - Cambridge","Street_Address":"186 Alewife Brook Parkway, Suite 310","City":"Cambridge","State":"MA","Zip":"02138","LATITUDE":42.391439,"LONGITUDE":-71.141142},
{"TYPE":"Comprehensive Job Center","NAME":"Workforce Central - Southbridge","Street_Address":"5 Optical Drive, Suite 200","City":"Southbridge","State":"MA","Zip":"01550","LATITUDE":42.076366,"LONGITUDE":-72.026070},
{"TYPE":"Comprehensive Job Center","NAME":"Employment and Training Resources - Norwood","Street_Address":"275 Prospect Street, P.O. Box 740","City":"Norwood","State":"MA","Zip":"02062","LATITUDE":42.199118,"LONGITUDE":-71.207410},
{"TYPE":"Comprehensive Job Center","NAME":"Taunton Career Center","Street_Address":"72 School Street","City":"Taunton","State":"MA","Zip":"02780","LATITUDE":41.905261,"LONGITUDE":-71.091104},
{"TYPE":"Comprehensive Job Center","NAME":"Franklin/Hampshire Career Center","Street_Address":"One Arch Place","City":"Greenfield","State":"MA","Zip":"01301","LATITUDE":42.592288,"LONGITUDE":-72.604461},
{"TYPE":"Affiliate Job Center","NAME":"BWI Thurgood Marshall Airport One Stop","Street_Address":"Main Terminal Concourse C, 401 Headquarters Dr., Ste 208, Millersville, MD 21108","City":"BWI Airport","State":"MD","Zip":"21240","LATITUDE":39.184300,"LONGITUDE":-76.674800},
{"TYPE":"Affiliate Job Center","NAME":"Queen Anne`s County Career Center","Street_Address":"125 Comet Drive","City":"Centreville","State":"MD","Zip":"21617","LATITUDE":39.033725,"LONGITUDE":-76.071925},
{"TYPE":"Affiliate Job Center","NAME":"Columbia Workforce Center","Street_Address":"7161 Columbia Gateway Drive, Suite D","City":"Columbia","State":"MD","Zip":"21046","LATITUDE":39.180335,"LONGITUDE":-76.806655},
{"TYPE":"Affiliate Job Center","NAME":"Mayor`s Office of Employment Development/Eastside Career OneStop Center","Street_Address":"3001 East Madison Street","City":"Baltimore","State":"MD","Zip":"21205","LATITUDE":39.300145,"LONGITUDE":-76.574926},
{"TYPE":"Affiliate Job Center","NAME":"Montgomery Works","Street_Address":"12900 Middlebrook Road","City":"Germantown","State":"MD","Zip":"20874","LATITUDE":39.178869,"LONGITUDE":-77.267605},
{"TYPE":"Affiliate Job Center","NAME":"Anne Arundel Community College and One Stop Career Center","Street_Address":"7000 Arundel Mills Circle","City":"Hanover","State":"MD","Zip":"21076","LATITUDE":39.154704,"LONGITUDE":-76.722739},
{"TYPE":"Comprehensive Job Center","NAME":"Lower Shore One Stop Job Market","Street_Address":"31901 Tricounty Way","City":"Salisbury","State":"MD","Zip":"21804","LATITUDE":38.377100,"LONGITUDE":-75.501400},
{"TYPE":"Comprehensive Job Center","NAME":"Baltimore County Workforce Development Center at Hunt Valley","Street_Address":"11101 McCormick Road, Suite 102","City":"Hunt Valley","State":"MD","Zip":"21031","LATITUDE":39.489763,"LONGITUDE":-76.658036},
{"TYPE":"Comprehensive Job Center","NAME":"Allegany County One-Stop Job Center","Street_Address":"138 Baltimore Street, Suite 102","City":"Cumberland","State":"MD","Zip":"21502","LATITUDE":39.651918,"LONGITUDE":-78.760174},
{"TYPE":"Comprehensive Job Center","NAME":"Prince George`s One Stop Career Center","Street_Address":"1100 Mercantile Lane, Suite 100","City":"Largo","State":"MD","Zip":"20774","LATITUDE":38.905213,"LONGITUDE":-76.838139},
{"TYPE":"Comprehensive Job Center","NAME":"Anne Arundel One Stop Career Center","Street_Address":"7480 Baltimore-Annapolis Boulevard, Suite 100","City":"Glen Burnie","State":"MD","Zip":"21061","LATITUDE":39.163904,"LONGITUDE":-76.624227},
{"TYPE":"Comprehensive Job Center","NAME":"Frederick County Workforce Services at the Business and Employment Center","Street_Address":"5340 Spectrum Drive, Suite A","City":"Frederick","State":"MD","Zip":"21703","LATITUDE":39.376399,"LONGITUDE":-77.403012},
{"TYPE":"Comprehensive Job Center","NAME":"Baltimore Works Career Center","Street_Address":"1100 North Eutaw Street, Room 101","City":"Baltimore","State":"MD","Zip":"21201","LATITUDE":39.302168,"LONGITUDE":-76.624270},
{"TYPE":"Comprehensive Job Center","NAME":"Susquehanna Workforce Center - Aberdeen","Street_Address":"34 North Philadelphia Blvd., Room 303","City":"Aberdeen","State":"MD","Zip":"21001","LATITUDE":39.510718,"LONGITUDE":-76.162889},
{"TYPE":"Comprehensive Job Center","NAME":"Kent County Career Center","Street_Address":"601 High Street, c/o Shared Opportunities Service, Inc.","City":"Chestertown","State":"MD","Zip":"21620","LATITUDE":39.213501,"LONGITUDE":-76.073273},
{"TYPE":"Comprehensive Job Center","NAME":"MontgomeryWorks One Stop Workforce Center","Street_Address":"11002 Veirs Mill Road, 1st Floor","City":"Wheaton","State":"MD","Zip":"20902","LATITUDE":39.035895,"LONGITUDE":-77.050011},
{"TYPE":"Comprehensive Job Center","NAME":"Washington County One-Stop Job Center","Street_Address":"14 North Potomac Street, Suite 100","City":"Hagerstown","State":"MD","Zip":"21740","LATITUDE":39.642297,"LONGITUDE":-77.719978},
{"TYPE":"Comprehensive Job Center","NAME":"Dorchester County Career Center","Street_Address":"627-A Race Street","City":"Cambridge","State":"MD","Zip":"21613","LATITUDE":38.566347,"LONGITUDE":-76.078017},
{"TYPE":"Comprehensive Job Center","NAME":"Prince Frederick One Stop Career Center","Street_Address":"200 Duke Street, Room 1400","City":"Prince Frederick","State":"MD","Zip":"20678","LATITUDE":38.537066,"LONGITUDE":-76.584132},
{"TYPE":"Comprehensive Job Center","NAME":"Talbot  Career Center","Street_Address":"301 Bay Street, Suite 301","City":"Easton","State":"MD","Zip":"21601","LATITUDE":38.776814,"LONGITUDE":-76.082516},
{"TYPE":"Comprehensive Job Center","NAME":"Leonardtown One-Stop Career Center","Street_Address":"23110 Leonard Hall Drive","City":"Leonardtown","State":"MD","Zip":"20650","LATITUDE":38.305508,"LONGITUDE":-76.631661},
{"TYPE":"Comprehensive Job Center","NAME":"Waldorf - One Stop/ Divison of Southern Workforce Services","Street_Address":"175 Post Office Road","City":"Waldorf","State":"MD","Zip":"20602","LATITUDE":38.615966,"LONGITUDE":-76.902089},
{"TYPE":"Comprehensive Job Center","NAME":"Arnold One-Stop Career Center","Street_Address":"1460 Ritchie Highway, Suite 207","City":"Arnold","State":"MD","Zip":"21012","LATITUDE":39.028940,"LONGITUDE":-76.504024},
{"TYPE":"Comprehensive Job Center","NAME":"Baltimore County Workforce Development Center at the Liberty Center","Street_Address":"3637 Offutt Road","City":"Randallstown","State":"MD","Zip":"21133","LATITUDE":39.370381,"LONGITUDE":-76.798298},
{"TYPE":"Comprehensive Job Center","NAME":"Columbia Workforce Center","Street_Address":"7161 Columbia Gateway Drive, Suite D","City":"Columbia","State":"MD","Zip":"21046","LATITUDE":39.180335,"LONGITUDE":-76.806655},
{"TYPE":"Comprehensive Job Center","NAME":"Baltimore County Workforce Development Center at Eastpoint","Street_Address":"7930 Eastern Boulevard","City":"Baltimore","State":"MD","Zip":"21224","LATITUDE":39.295946,"LONGITUDE":-76.508429},
{"TYPE":"Comprehensive Job Center","NAME":"Garrett County One-Stop Job Center","Street_Address":"221 South Third Street","City":"Oakland","State":"MD","Zip":"21550","LATITUDE":39.407680,"LONGITUDE":-79.407164},
{"TYPE":"Comprehensive Job Center","NAME":"Bel Air Workforce Center","Street_Address":"2 South Bond Street, Suite 204 Second Floor","City":"Bel Air","State":"MD","Zip":"21014","LATITUDE":39.535903,"LONGITUDE":-76.350552},
{"TYPE":"Comprehensive Job Center","NAME":"Anne Arundel One Stop Career Center","Street_Address":"80 West Street, Suite A","City":"Annapolis","State":"MD","Zip":"21401","LATITUDE":38.978199,"LONGITUDE":-76.496397},
{"TYPE":"Comprehensive Job Center","NAME":"Northwest Career Center at Mondawmin Mall","Street_Address":"2401 Liberty Heights Avenue, Suite 302 (Mondawmin Mall)","City":"Baltimore","State":"MD","Zip":"21215","LATITUDE":39.318605,"LONGITUDE":-76.651908},
{"TYPE":"Comprehensive Job Center","NAME":"Caroline County Career Center","Street_Address":"300 Market Street, P.O. Box 400","City":"Denton","State":"MD","Zip":"21629","LATITUDE":38.885978,"LONGITUDE":-75.831553},
{"TYPE":"Comprehensive Job Center","NAME":"Carroll County Business & Employment Resource Center","Street_Address":"224 North Center Street","City":"Westminster","State":"MD","Zip":"21157","LATITUDE":39.573318,"LONGITUDE":-76.987687},
{"TYPE":"Comprehensive Job Center","NAME":"Cecil County Workforce Center","Street_Address":"1275 West Pulaski Highway","City":"Elkton","State":"MD","Zip":"21921","LATITUDE":39.609986,"LONGITUDE":-75.897283},
{"TYPE":"Comprehensive Job Center","NAME":"Eastside Career Center","Street_Address":"3001 East Madison Street","City":"Baltimore","State":"MD","Zip":"21205","LATITUDE":39.300145,"LONGITUDE":-76.574926},
{"TYPE":"Comprehensive Job Center","NAME":"Maine CareerCenter","Street_Address":"98 North Avenue, Suite 20","City":"Skowhegan","State":"ME","Zip":"04976","LATITUDE":44.772446,"LONGITUDE":-69.718072},
{"TYPE":"Comprehensive Job Center","NAME":"CareerCenter at Rockland","Street_Address":"91 Camden Street, Suite 201","City":"Rockland","State":"ME","Zip":"04841","LATITUDE":44.117567,"LONGITUDE":-69.103065},
{"TYPE":"Comprehensive Job Center","NAME":"York County CareerCenter at Springvale","Street_Address":"9 Bodwell Court","City":"Springvale","State":"ME","Zip":"04083","LATITUDE":43.467197,"LONGITUDE":-70.799014},
{"TYPE":"Comprehensive Job Center","NAME":"Aroostook County Action Program - Employment & Training Office","Street_Address":"88 Fox Street","City":"Madawaska","State":"ME","Zip":"04756","LATITUDE":47.352825,"LONGITUDE":-68.344703},
{"TYPE":"Comprehensive Job Center","NAME":"Tri-County Career Center","Street_Address":"45 Oak Street, Suite 3","City":"Bangor","State":"ME","Zip":"04401-6666","LATITUDE":44.800800,"LONGITUDE":-68.766500},
{"TYPE":"Comprehensive Job Center","NAME":"CareerCenter at Machias","Street_Address":"53 Prescott Drive, Suite 1","City":"Machias","State":"ME","Zip":"04654","LATITUDE":44.706163,"LONGITUDE":-67.464810},
{"TYPE":"Comprehensive Job Center","NAME":"CareerCenter at Portland","Street_Address":"185 Lancaster Street","City":"Portland","State":"ME","Zip":"04101-2453","LATITUDE":43.660320,"LONGITUDE":-70.262056},
{"TYPE":"Comprehensive Job Center","NAME":"CareerCenter at Wilton","Street_Address":"865 US Route 2E","City":"Wilton","State":"ME","Zip":"04294","LATITUDE":44.615654,"LONGITUDE":-70.181146},
{"TYPE":"Comprehensive Job Center","NAME":"CareerCenter at Augusta","Street_Address":"21 Enterprise Drive, Suite 2; 109 State House Station","City":"Augusta","State":"ME","Zip":"04333-0109","LATITUDE":44.365108,"LONGITUDE":-69.796518},
{"TYPE":"Comprehensive Job Center","NAME":"CareerCenter at Presque Isle","Street_Address":"66 Spruce Street, Suite 1","City":"Presque Isle","State":"ME","Zip":"04769-3222","LATITUDE":46.697853,"LONGITUDE":-68.006739},
{"TYPE":"Comprehensive Job Center","NAME":"Southern Midcoast CareerCenter","Street_Address":"275 Bath Road, Suite 3","City":"Brunswick","State":"ME","Zip":"04011","LATITUDE":43.911140,"LONGITUDE":-69.900997},
{"TYPE":"Comprehensive Job Center","NAME":"CareerCenter at Lewiston","Street_Address":"5 Mollison Way","City":"Lewiston","State":"ME","Zip":"04240-5805","LATITUDE":44.123668,"LONGITUDE":-70.201216},
{"TYPE":"Comprehensive Job Center","NAME":"CareerCenter at Calais","Street_Address":"One College Drive","City":"Calais","State":"ME","Zip":"04619","LATITUDE":45.166999,"LONGITUDE":-67.243363},
{"TYPE":"Affiliate Job Center","NAME":"Michigan Works! Alcona Service Center","Street_Address":"202 South 2nd Street, Suite B; P.O. Box 316","City":"Lincoln","State":"MI","Zip":"48742","LATITUDE":44.683781,"LONGITUDE":-83.411719},
{"TYPE":"Affiliate Job Center","NAME":"Michigan Works! Cheboygan Service Center","Street_Address":"11153 N Straits Hwy","City":"Cheboygan","State":"MI","Zip":"49721","LATITUDE":45.622502,"LONGITUDE":-84.478537},
{"TYPE":"Affiliate Job Center","NAME":"Michigan Works! Service Center- Sparta","Street_Address":"36 Applewood Drive","City":"Sparta","State":"MI","Zip":"49345","LATITUDE":43.160821,"LONGITUDE":-85.721561},
{"TYPE":"Affiliate Job Center","NAME":"Michigan Works! Presque Isle County Service Center - Northeast Michigan Consortium","Street_Address":"20709 State Street, P.O. Box 711","City":"Onaway","State":"MI","Zip":"49765","LATITUDE":45.357575,"LONGITUDE":-84.228218},
{"TYPE":"Affiliate Job Center","NAME":"Michigan Works!","Street_Address":"6 Spring Street, Suite 102","City":"St. Ignace","State":"MI","Zip":"49781","LATITUDE":45.866102,"LONGITUDE":-84.720571},
{"TYPE":"Affiliate Job Center","NAME":"Michigan Works! The Job Force","Street_Address":"114 W. Superior Street","City":"Munising","State":"MI","Zip":"49862","LATITUDE":46.410842,"LONGITUDE":-86.656043},
{"TYPE":"Affiliate Job Center","NAME":"Michigan Works!","Street_Address":"501 West Harrie Street","City":"Newberry","State":"MI","Zip":"49868","LATITUDE":46.352703,"LONGITUDE":-85.515764},
{"TYPE":"Affiliate Job Center","NAME":"Michigan Works! Crawford Service Center","Street_Address":"4595 Salling Drive","City":"Grayling","State":"MI","Zip":"49738","LATITUDE":44.651144,"LONGITUDE":-84.699278},
{"TYPE":"Affiliate Job Center","NAME":"Michigan Works! Otsego Service Center","Street_Address":"2927 D & M Drive","City":"Gaylord","State":"MI","Zip":"49735","LATITUDE":44.989500,"LONGITUDE":-84.684000},
{"TYPE":"Affiliate Job Center","NAME":"Michigan Works! Oscoda County Service Center","Street_Address":"1329 South Mt. Tom Road","City":"Mio","State":"MI","Zip":"48647","LATITUDE":44.621132,"LONGITUDE":-84.129817},
{"TYPE":"Affiliate Job Center","NAME":"Grosse Pointe Michigan Works Salellite Center","Street_Address":"17888 Mack Ave.","City":"Grosse Pointe","State":"MI","Zip":"48230","LATITUDE":42.403542,"LONGITUDE":-82.916571},
{"TYPE":"Affiliate Job Center","NAME":"Michigan Works! The Job Force","Street_Address":"200 North Maple Street","City":"Manistique","State":"MI","Zip":"49854","LATITUDE":45.959790,"LONGITUDE":-86.244321},
{"TYPE":"Comprehensive Job Center","NAME":"Michigan Works! Capital Area Service Center - Eaton County","Street_Address":"311 West First Street","City":"Charlotte","State":"MI","Zip":"48813","LATITUDE":42.551830,"LONGITUDE":-84.838661},
{"TYPE":"Comprehensive Job Center","NAME":"Michigan Works! Service Center - Leonard","Street_Address":"1560 Leonard NE.","City":"Grand Rapids","State":"MI","Zip":"49505","LATITUDE":42.984398,"LONGITUDE":-85.630733},
{"TYPE":"Comprehensive Job Center","NAME":"Michigan Works!  Paw Paw","Street_Address":"32849 Red Arrow Highway, Suite 200","City":"Paw Paw","State":"MI","Zip":"49079","LATITUDE":42.220337,"LONGITUDE":-85.870445},
{"TYPE":"Comprehensive Job Center","NAME":"Michigan Works! Hastings Service Center","Street_Address":"535 West Woodlawn Avenue","City":"Hastings","State":"MI","Zip":"49058","LATITUDE":42.660903,"LONGITUDE":-85.293196},
{"TYPE":"Comprehensive Job Center","NAME":"Capital Area Michigan Works!","Street_Address":"2110 South Cedar Street","City":"Lansing","State":"MI","Zip":"48910","LATITUDE":42.710361,"LONGITUDE":-84.548062},
{"TYPE":"Comprehensive Job Center","NAME":"Michigan Works! Service Center","Street_Address":"327 East Center Street","City":"Alma","State":"MI","Zip":"48801","LATITUDE":43.377696,"LONGITUDE":-84.658111},
{"TYPE":"Comprehensive Job Center","NAME":"Michigan Works! Service Center - Allegan County","Street_Address":"3255 122nd Avenue, Suite 101","City":"Allegan","State":"MI","Zip":"49010","LATITUDE":42.578938,"LONGITUDE":-85.868616},
{"TYPE":"Comprehensive Job Center","NAME":"Michigan Works! Ionia Service Center","Street_Address":"307 West Adams Street","City":"Ionia","State":"MI","Zip":"48846","LATITUDE":42.981571,"LONGITUDE":-85.065772},
{"TYPE":"Comprehensive Job Center","NAME":"Michigan Works! Isabella Service Center","Street_Address":"5889 East Broadway","City":"Mt. Pleasant","State":"MI","Zip":"48858","LATITUDE":43.604261,"LONGITUDE":-84.729871},
{"TYPE":"Comprehensive Job Center","NAME":"Michigan Works! Macomb Service Center - Mt. Clemens","Street_Address":"75 North River Road","City":"Mt. Clemens","State":"MI","Zip":"48043","LATITUDE":42.598361,"LONGITUDE":-82.870879},
{"TYPE":"Comprehensive Job Center","NAME":"Michigan Works! Southfield Service Center","Street_Address":"21030 Indian Street","City":"Southfield","State":"MI","Zip":"48033","LATITUDE":42.445282,"LONGITUDE":-83.311901},
{"TYPE":"Comprehensive Job Center","NAME":"South Central Michigan Works! Lenawee Service Center","Street_Address":"1040 South Winter St., Suite 1014","City":"Adrian","State":"MI","Zip":"49221","LATITUDE":41.883529,"LONGITUDE":-84.038524},
{"TYPE":"Comprehensive Job Center","NAME":"Michigan Works! Dearborn  Access Service Center","Street_Address":"6451 Schaefer Road","City":"Dearborn","State":"MI","Zip":"48126","LATITUDE":42.337619,"LONGITUDE":-83.176629},
{"TYPE":"Comprehensive Job Center","NAME":"Michigan Works! Mecosta Service Center","Street_Address":"14330 Northland Drive","City":"Big Rapids","State":"MI","Zip":"49307","LATITUDE":43.675524,"LONGITUDE":-85.483284},
{"TYPE":"Comprehensive Job Center","NAME":"Michigan Works! Osceola Service Center","Street_Address":"240 East Church Avenue","City":"Reed City","State":"MI","Zip":"49677","LATITUDE":43.869649,"LONGITUDE":-85.507460},
{"TYPE":"Comprehensive Job Center","NAME":"Michigan Works! - Baraga County","Street_Address":"115 North Front Street","City":"L`Anse","State":"MI","Zip":"49946","LATITUDE":46.758920,"LONGITUDE":-88.454624},
{"TYPE":"Comprehensive Job Center","NAME":"Michigan Works! St. Clair Service Center","Street_Address":"100 McMorran, 6th Floor","City":"Port Huron","State":"MI","Zip":"48060","LATITUDE":42.978692,"LONGITUDE":-82.420359},
{"TYPE":"Comprehensive Job Center","NAME":"Michigan Works! Dowagiac","Street_Address":"601 D North Front Street","City":"Dowagiac","State":"MI","Zip":"49047","LATITUDE":42.006600,"LONGITUDE":-86.119800},
{"TYPE":"Comprehensive Job Center","NAME":"Michigan Works! Service Center - Eastern UP","Street_Address":"1118 East Easterday Avenue","City":"Sault Ste. Marie","State":"MI","Zip":"49783","LATITUDE":46.491537,"LONGITUDE":-84.339096},
{"TYPE":"Comprehensive Job Center","NAME":"Michigan Works! Service Center - Three Rivers","Street_Address":"16587 Enterprise Drive","City":"Three Rivers","State":"MI","Zip":"49093","LATITUDE":41.967725,"LONGITUDE":-85.634199},
{"TYPE":"Comprehensive Job Center","NAME":"Michigan Works! Service Center - Alpena County","Street_Address":"315 West Chisholm","City":"Alpena","State":"MI","Zip":"49707","LATITUDE":45.064410,"LONGITUDE":-83.435807},
{"TYPE":"Comprehensive Job Center","NAME":"Menominee Michigan Works! The Job Force","Street_Address":"2604 Tenth Street","City":"Menominee","State":"MI","Zip":"49858","LATITUDE":45.122483,"LONGITUDE":-87.613037},
{"TYPE":"Comprehensive Job Center","NAME":"Michigan Works! Washtenaw County Service Center","Street_Address":"304 Harriet Street","City":"Ypsilanti","State":"MI","Zip":"48197","LATITUDE":42.233637,"LONGITUDE":-83.616041},
{"TYPE":"Comprehensive Job Center","NAME":"Michigan Works! Clare County Service Center","Street_Address":"402 N. First Street","City":"Harrison","State":"MI","Zip":"48625","LATITUDE":44.022604,"LONGITUDE":-84.800917},
{"TYPE":"Comprehensive Job Center","NAME":"Michigan Works! Roscommon County Service Center","Street_Address":"1015 Short Street, Suite 2","City":"Prudenville","State":"MI","Zip":"48651","LATITUDE":44.313030,"LONGITUDE":-84.630467},
{"TYPE":"Comprehensive Job Center","NAME":"Michigan Works! Muskegon-Oceana, Shelby Site","Street_Address":"195 North Michigan Avenue","City":"Shelby","State":"MI","Zip":"49455","LATITUDE":43.611390,"LONGITUDE":-86.363953},
{"TYPE":"Comprehensive Job Center","NAME":"Downriver Community Conference - (Michigan Works! Southgate Service Center)","Street_Address":"15100 Northline Road","City":"Southgate","State":"MI","Zip":"48195","LATITUDE":42.213510,"LONGITUDE":-83.207462},
{"TYPE":"Comprehensive Job Center","NAME":"Michigan Works!  The Job Force - Delta County","Street_Address":"2831 North Lincoln Road","City":"Escanaba","State":"MI","Zip":"49829","LATITUDE":45.772719,"LONGITUDE":-87.082496},
{"TYPE":"Comprehensive Job Center","NAME":"Michigan Works! Manistee Service Center","Street_Address":"1660 US 31 South","City":"Manistee","State":"MI","Zip":"49660","LATITUDE":44.226385,"LONGITUDE":-86.310863},
{"TYPE":"Comprehensive Job Center","NAME":"Michigan Works! Waterford Service Center","Street_Address":"501 North Cass Lake Road","City":"Waterford","State":"MI","Zip":"48328","LATITUDE":42.646729,"LONGITUDE":-83.355972},
{"TYPE":"Comprehensive Job Center","NAME":"Michigan Works! - Career Alliance","Street_Address":"711 N. Saginaw Street, Suite 300","City":"Flint","State":"MI","Zip":"48503","LATITUDE":43.022606,"LONGITUDE":-83.693585},
{"TYPE":"Comprehensive Job Center","NAME":"Michigan Works! The Job Force Board","Street_Address":"200 Fairbanks","City":"Iron Mountain","State":"MI","Zip":"49801","LATITUDE":45.824901,"LONGITUDE":-88.069105},
{"TYPE":"Comprehensive Job Center","NAME":"Michigan Works! Macomb Service Center - Roseville","Street_Address":"15950 Twelve Mile Road","City":"Roseville","State":"MI","Zip":"48066","LATITUDE":42.508973,"LONGITUDE":-82.959875},
{"TYPE":"Comprehensive Job Center","NAME":"Michigan Works! Service Center: South Ottawa County","Street_Address":"121 Clover Street","City":"Holland","State":"MI","Zip":"49423","LATITUDE":42.792371,"LONGITUDE":-86.084203},
{"TYPE":"Comprehensive Job Center","NAME":"OneStop Service Center","Street_Address":"5555 Conner Avenue","City":"Detroit","State":"MI","Zip":"48213","LATITUDE":42.392273,"LONGITUDE":-82.982144},
{"TYPE":"Comprehensive Job Center","NAME":"ThumbWorks a  Michigan Works! Agency","Street_Address":"614 N. Port Crescent","City":"Bad Axe","State":"MI","Zip":"48413","LATITUDE":43.807669,"LONGITUDE":-83.000554},
{"TYPE":"Comprehensive Job Center","NAME":"Michigan Works!  Benton Harbor","Street_Address":"499 West Main Street","City":"Benton Harbor","State":"MI","Zip":"49022","LATITUDE":42.113704,"LONGITUDE":-86.465221},
{"TYPE":"Comprehensive Job Center","NAME":"Michigan Works! Thumb Area Tuscola County Service Center","Street_Address":"1184 Cleaver Road","City":"Caro","State":"MI","Zip":"48723","LATITUDE":43.500949,"LONGITUDE":-83.387553},
{"TYPE":"Comprehensive Job Center","NAME":"Michigan Works! Oak Park Career Center","Street_Address":"22180 Parklawn","City":"Oak Park","State":"MI","Zip":"48237","LATITUDE":42.459474,"LONGITUDE":-83.186777},
{"TYPE":"Comprehensive Job Center","NAME":"Michigan Works! - Ontonagon County","Street_Address":"429 River Street","City":"Ontonagon","State":"MI","Zip":"49953","LATITUDE":46.872212,"LONGITUDE":-89.316663},
{"TYPE":"Comprehensive Job Center","NAME":"Michigan Works! Iosco County Service Center","Street_Address":"1230 East US 23","City":"East Tawas","State":"MI","Zip":"48730","LATITUDE":44.314600,"LONGITUDE":-83.390800},
{"TYPE":"Comprehensive Job Center","NAME":"Michigan Works! West Central - Mason County","Street_Address":"5722 W. U.S. - 10","City":"Ludington","State":"MI","Zip":"49431","LATITUDE":43.956366,"LONGITUDE":-86.422615},
{"TYPE":"Comprehensive Job Center","NAME":"Michigan Works! Highland Career Center","Street_Address":"2218 S. Milford Road","City":"Highland","State":"MI","Zip":"48357","LATITUDE":42.619803,"LONGITUDE":-83.616123},
{"TYPE":"Comprehensive Job Center","NAME":"Michigan Works! - Gogebic County","Street_Address":"100 West Cloverland Drive","City":"Ironwood","State":"MI","Zip":"49938","LATITUDE":46.463433,"LONGITUDE":-90.172725},
{"TYPE":"Comprehensive Job Center","NAME":"Michigan Works! Kalamazoo","Street_Address":"1601 South Burdick Street","City":"Kalamazoo","State":"MI","Zip":"49001-4614","LATITUDE":42.275994,"LONGITUDE":-85.582904},
{"TYPE":"Comprehensive Job Center","NAME":"Michigan Works! West Central - Newaygo County","Street_Address":"4747 West 48th Street, Suite 162","City":"Fremont","State":"MI","Zip":"49412","LATITUDE":43.467098,"LONGITUDE":-85.918138},
{"TYPE":"Comprehensive Job Center","NAME":"Michigan Works! Gladwin County Service Center","Street_Address":"110 Buckeye Street","City":"Gladwin","State":"MI","Zip":"48624","LATITUDE":43.980438,"LONGITUDE":-84.476646},
{"TYPE":"Comprehensive Job Center","NAME":"Michigan Works! Montcalm Service Center","Street_Address":"114 South Greenville West Drive","City":"Greenville","State":"MI","Zip":"48838","LATITUDE":43.180316,"LONGITUDE":-85.278223},
{"TYPE":"Comprehensive Job Center","NAME":"Michigan Works!  Battle Creek Service Center","Street_Address":"135 West Hamblin Avenue","City":"Battle Creek","State":"MI","Zip":"49017","LATITUDE":42.322042,"LONGITUDE":-85.191501},
{"TYPE":"Comprehensive Job Center","NAME":"Detroit Workforce Development Department","Street_Address":"707 W. Milwaukee","City":"Detroit","State":"MI","Zip":"48202","LATITUDE":42.367302,"LONGITUDE":-83.077182},
{"TYPE":"Comprehensive Job Center","NAME":"Detroit Employment Solutions Corporation","Street_Address":"9301 Michigan Avenue, 1st Floor","City":"Detroit","State":"MI","Zip":"48210","LATITUDE":42.328403,"LONGITUDE":-83.154063},
{"TYPE":"Comprehensive Job Center","NAME":"Michigan Works! Service Center in Midland County","Street_Address":"1409 Washington","City":"Midland","State":"MI","Zip":"48640","LATITUDE":43.613238,"LONGITUDE":-84.217408},
{"TYPE":"Comprehensive Job Center","NAME":"South Central Michigan Works! Jackson Service Center","Street_Address":"209 East Washington Avenue, Suite 100","City":"Jackson","State":"MI","Zip":"49201","LATITUDE":42.245587,"LONGITUDE":-84.403755},
{"TYPE":"Comprehensive Job Center","NAME":"Michigan Works! Highland Park Service Center","Street_Address":"144 E. Manchester Street","City":"Highland Park","State":"MI","Zip":"48203","LATITUDE":42.408826,"LONGITUDE":-83.093202},
{"TYPE":"Comprehensive Job Center","NAME":"Michigan Works! Ferndale Career Center","Street_Address":"713 East 9 Mile Road","City":"Ferndale","State":"MI","Zip":"48220","LATITUDE":42.460878,"LONGITUDE":-83.124064},
{"TYPE":"Comprehensive Job Center","NAME":"Michigan Works! Monroe Service Center","Street_Address":"1531 North Telegraph Road, Suite D","City":"Monroe","State":"MI","Zip":"48162","LATITUDE":41.943798,"LONGITUDE":-83.403559},
{"TYPE":"Comprehensive Job Center","NAME":"South Central Michigan Works! Hillsdale Service Center","Street_Address":"21 Care Drive","City":"Hillsdale","State":"MI","Zip":"49242","LATITUDE":41.929851,"LONGITUDE":-84.644200},
{"TYPE":"Comprehensive Job Center","NAME":"Michigan Works! Iron County Service Center","Street_Address":"237 East Caspian Avenue, P.O. Box 670","City":"Caspian","State":"MI","Zip":"49915","LATITUDE":46.064100,"LONGITUDE":-88.631300},
{"TYPE":"Comprehensive Job Center","NAME":"Michigan Works! Muskeon - Oceana Laketon","Street_Address":"2389 Laketon Avenue","City":"Muskegon","State":"MI","Zip":"49440","LATITUDE":43.219603,"LONGITUDE":-86.184843},
{"TYPE":"Comprehensive Job Center","NAME":"ThumbWorks a Michigan Works! Agency","Street_Address":"575 W. Sanilac Road, P.O. Box 147","City":"Sandusky","State":"MI","Zip":"48471","LATITUDE":43.420760,"LONGITUDE":-82.853102},
{"TYPE":"Comprehensive Job Center","NAME":"Michigan Works! Houghton County Service Center","Street_Address":"902 Razorback Drive, Suite 6","City":"Houghton","State":"MI","Zip":"49931","LATITUDE":47.112954,"LONGITUDE":-88.586746},
{"TYPE":"Comprehensive Job Center","NAME":"Northwest Michigan Works! Petoskey Service Center","Street_Address":"2225 Summit Park Drive","City":"Petoskey","State":"MI","Zip":"49770","LATITUDE":45.376091,"LONGITUDE":-84.924200},
{"TYPE":"Comprehensive Job Center","NAME":"Northwest Michigan Works! Traverse City Service Center","Street_Address":"1209  South Garfield Avenue, Suite C","City":"Traverse City","State":"MI","Zip":"49686","LATITUDE":44.745851,"LONGITUDE":-85.595260},
{"TYPE":"Comprehensive Job Center","NAME":"Michigan Works! Lake County Service Center","Street_Address":"5252 South M-37","City":"Baldwin","State":"MI","Zip":"49304","LATITUDE":43.870689,"LONGITUDE":-85.851550},
{"TYPE":"Comprehensive Job Center","NAME":"Michigan Works! Cadillac Service Center- Wexford County","Street_Address":"401 North Lake Street, Suite 700","City":"Cadillac","State":"MI","Zip":"49601","LATITUDE":44.252220,"LONGITUDE":-85.403846},
{"TYPE":"Comprehensive Job Center","NAME":"Michigan Works! Service Center","Street_Address":"27850 Van Dyke Avenue","City":"Warren","State":"MI","Zip":"48093-7220","LATITUDE":42.498798,"LONGITUDE":-83.027942},
{"TYPE":"Comprehensive Job Center","NAME":"Michigan Works! Coldwater Service Center","Street_Address":"210 Vista Drive","City":"Coldwater","State":"MI","Zip":"49036","LATITUDE":41.946213,"LONGITUDE":-84.979215},
{"TYPE":"Comprehensive Job Center","NAME":"Michigan Works! Marquette Service Center","Street_Address":"1498 O`Dovero Drive","City":"Marquette","State":"MI","Zip":"49855","LATITUDE":46.541655,"LONGITUDE":-87.425705},
{"TYPE":"Comprehensive Job Center","NAME":"Michigan Works! Service Center - Bay County","Street_Address":"4061 N. Euclid, North Pointe Plaza","City":"Bay City","State":"MI","Zip":"48706","LATITUDE":43.623125,"LONGITUDE":-83.914178},
{"TYPE":"Comprehensive Job Center","NAME":"Capital Area Michigan Works! Clinton County Service Center","Street_Address":"101 West Cass Street, Suite A","City":"St. Johns","State":"MI","Zip":"48879","LATITUDE":43.000098,"LONGITUDE":-84.558614},
{"TYPE":"Comprehensive Job Center","NAME":"Michigan Works! Wayne Service Center","Street_Address":"35731 West Michigan Avenue","City":"Wayne","State":"MI","Zip":"48184","LATITUDE":42.282451,"LONGITUDE":-83.391447},
{"TYPE":"Comprehensive Job Center","NAME":"Michigan Works! Livingston Service Center","Street_Address":"1240 Packard Drive","City":"Howell","State":"MI","Zip":"48843","LATITUDE":42.617975,"LONGITUDE":-83.984747},
{"TYPE":"Comprehensive Job Center","NAME":"ThumbWorks a Michigan Works! Agency","Street_Address":"550 Lake Drive, P.O. Box 600","City":"Lapeer","State":"MI","Zip":"48446","LATITUDE":43.019249,"LONGITUDE":-83.363043},
{"TYPE":"Comprehensive Job Center","NAME":"Michigan Works! Service Center - Franklin","Street_Address":"121 Franklin SE, Suite 110","City":"Grand Rapids","State":"MI","Zip":"49507","LATITUDE":42.948728,"LONGITUDE":-85.665014},
{"TYPE":"Comprehensive Job Center","NAME":"Michigan Works! Muskegon-Oceana, Muskegon Site","Street_Address":"316 Morris Avenue, Suite 100","City":"Muskegon","State":"MI","Zip":"49440","LATITUDE":43.237488,"LONGITUDE":-86.251804},
{"TYPE":"Comprehensive Job Center","NAME":"Michigan Works!  Arenac County Service Center","Street_Address":"4480 West M-61","City":"Standish","State":"MI","Zip":"48658","LATITUDE":43.983025,"LONGITUDE":-83.989999},
{"TYPE":"Comprehensive Job Center","NAME":"Troy Michigan Works!","Street_Address":"550 Stephenson Highway, Suite 400","City":"Troy","State":"MI","Zip":"48083","LATITUDE":42.538542,"LONGITUDE":-83.119966},
{"TYPE":"Comprehensive Job Center","NAME":"Michigan Works!  Novi Service Center","Street_Address":"Main Office: 31186 Beck Road","City":"Novi","State":"MI","Zip":"48377","LATITUDE":42.507600,"LONGITUDE":-83.472000},
{"TYPE":"Comprehensive Job Center","NAME":"Michigan Works! Ogemaw County Service Center","Street_Address":"2389 South M-76","City":"West Branch","State":"MI","Zip":"48661","LATITUDE":44.267763,"LONGITUDE":-84.217935},
{"TYPE":"Comprehensive Job Center","NAME":"Michigan Works! JobLink Service Center","Street_Address":"1850 North Perry","City":"Pontiac","State":"MI","Zip":"48340","LATITUDE":42.675319,"LONGITUDE":-83.252344},
{"TYPE":"Comprehensive Job Center","NAME":"Genesee Shiawassee Michigan Works! Shiawassee Service Center","Street_Address":"1975 West Main Street, 2nd Floor","City":"Owosso","State":"MI","Zip":"48867","LATITUDE":42.997510,"LONGITUDE":-84.205426},
{"TYPE":"Comprehensive Job Center","NAME":"Michigan Works! Service Center North Ottawa County","Street_Address":"1830 172nd Avenue","City":"Grand Haven","State":"MI","Zip":"49417-8931","LATITUDE":43.032700,"LONGITUDE":-86.214900},
{"TYPE":"Comprehensive Job Center","NAME":"Michigan Works! Macomb Service Center - Clinton Township","Street_Address":"43630 Hayes Road, Suite 100","City":"Clinton Township","State":"MI","Zip":"48038","LATITUDE":42.616780,"LONGITUDE":-82.972778},
{"TYPE":"Comprehensive Job Center","NAME":"Great Lakes Bay Michigan Works","Street_Address":"312 E. Genesee","City":"Saginaw","State":"MI","Zip":"48607","LATITUDE":43.432953,"LONGITUDE":-83.937610},
{"TYPE":"Comprehensive Job Center","NAME":"Michigan Works! Livonia Service Center","Street_Address":"30246 Plymouth Road","City":"Livonia","State":"MI","Zip":"48150","LATITUDE":42.369011,"LONGITUDE":-83.341942},
{"TYPE":"Comprehensive Job Center","NAME":"Minnesota WorkForce Center - Washington County Forest Lake","Street_Address":"19955 Forest Road North","City":"Forest Lake","State":"MN","Zip":"55025-9733","LATITUDE":45.239944,"LONGITUDE":-92.986098},
{"TYPE":"Comprehensive Job Center","NAME":"Minnesota WorkForce Center - Washington County Cottage Grove","Street_Address":"13000 Ravine Parkway South","City":"Cottage Grove","State":"MN","Zip":"55016-6102","LATITUDE":44.819063,"LONGITUDE":-92.903498},
{"TYPE":"Comprehensive Job Center","NAME":"Minnesota WorkForce Center - Rochester","Street_Address":"300 11th Avenue N.W., Suite 112","City":"Rochester","State":"MN","Zip":"55901","LATITUDE":44.026181,"LONGITUDE":-92.478891},
{"TYPE":"Comprehensive Job Center","NAME":"Minnesota WorkForce Center - Virginia","Street_Address":"820 9th Street North","City":"Virginia","State":"MN","Zip":"55792-2345","LATITUDE":47.530679,"LONGITUDE":-92.546161},
{"TYPE":"Comprehensive Job Center","NAME":"Minnesota WorkForce Center - Worthington","Street_Address":"318 Ninth Street, P.O. Box 816","City":"Worthington","State":"MN","Zip":"56187","LATITUDE":43.618993,"LONGITUDE":-95.597801},
{"TYPE":"Comprehensive Job Center","NAME":"Minnesota WorkForce Center - Washington County Woodbury","Street_Address":"2150 Radio Drive","City":"Woodbury","State":"MN","Zip":"55125","LATITUDE":44.915307,"LONGITUDE":-92.934826},
{"TYPE":"Comprehensive Job Center","NAME":"Minnesota WorkForce Center - Cloquet","Street_Address":"14 North 11th Street, Suite 140","City":"Cloquet","State":"MN","Zip":"55720","LATITUDE":46.721852,"LONGITUDE":-92.452466},
{"TYPE":"Comprehensive Job Center","NAME":"Minnesota WorkForce Center - Dakota County - Burnsville","Street_Address":"2800 County Road 42 W","City":"Burnsville","State":"MN","Zip":"55337","LATITUDE":44.746429,"LONGITUDE":-93.314532},
{"TYPE":"Comprehensive Job Center","NAME":"Minnesota WorkForce Center - Detroit Lakes","Street_Address":"803 Roosevelt Avenue, 101","City":"Detroit Lakes","State":"MN","Zip":"56502","LATITUDE":46.818453,"LONGITUDE":-95.837896},
{"TYPE":"Comprehensive Job Center","NAME":"Minnesota WorkForce Center - Cambridge","Street_Address":"140 Buchanan St N, Suite 152","City":"Cambridge","State":"MN","Zip":"55008-1756","LATITUDE":45.573052,"LONGITUDE":-93.221447},
{"TYPE":"Comprehensive Job Center","NAME":"Minnesota WorkForce Center - Albert Lea","Street_Address":"2200 River Land Drive","City":"Albert Lea","State":"MN","Zip":"56007-1868","LATITUDE":43.677296,"LONGITUDE":-93.354084},
{"TYPE":"Comprehensive Job Center","NAME":"Minnesota WorkForce Center - Brainerd","Street_Address":"204 Laurel Street, Suite 21","City":"Brainerd","State":"MN","Zip":"56401","LATITUDE":46.355706,"LONGITUDE":-94.206543},
{"TYPE":"Comprehensive Job Center","NAME":"Minnesota WorkForce Center - Duluth","Street_Address":"402 W 1st St","City":"Duluth","State":"MN","Zip":"55802","LATITUDE":46.783705,"LONGITUDE":-92.104319},
{"TYPE":"Comprehensive Job Center","NAME":"Minnesota WorkForce Center - Faribault","Street_Address":"201 South Lyndale Avenue, S1; Faribo Town Square","City":"Faribault","State":"MN","Zip":"55021-5758","LATITUDE":44.290523,"LONGITUDE":-93.290072},
{"TYPE":"Comprehensive Job Center","NAME":"Minnesota WorkForce Center - Grand Rapids","Street_Address":"1215 SE 2nd Avenue, Itasca Resource Center","City":"Grand Rapids","State":"MN","Zip":"55744-3982","LATITUDE":47.217393,"LONGITUDE":-93.525345},
{"TYPE":"Comprehensive Job Center","NAME":"Minnesota WorkForce Center - Hennepin South","Street_Address":"4220 West Old Shakopee Road","City":"Bloomington","State":"MN","Zip":"55437","LATITUDE":44.809465,"LONGITUDE":-93.333959},
{"TYPE":"Comprehensive Job Center","NAME":"Minnesota WorkForce Center - Hibbing","Street_Address":"3920 13th Avenue East","City":"Hibbing","State":"MN","Zip":"55746-3675","LATITUDE":47.403869,"LONGITUDE":-92.925012},
{"TYPE":"Comprehensive Job Center","NAME":"Minnesota WorkForce Center - Litchfield","Street_Address":"114 North Holcomb Ave., Suite 170; Meeker County Family Services Building","City":"Litchfield","State":"MN","Zip":"55355-2273","LATITUDE":45.126494,"LONGITUDE":-94.525114},
{"TYPE":"Comprehensive Job Center","NAME":"Minnesota WorkForce Center - New Ulm","Street_Address":"1618 South Broadway, Suite 203","City":"New Ulm","State":"MN","Zip":"56073-3756","LATITUDE":44.296640,"LONGITUDE":-94.445431},
{"TYPE":"Comprehensive Job Center","NAME":"Minnesota WorkForce Center - Owatonna","Street_Address":"115 Landmark Dr NE","City":"Owatonna","State":"MN","Zip":"55060-5720","LATITUDE":44.110988,"LONGITUDE":-93.225602},
{"TYPE":"Comprehensive Job Center","NAME":"Minnesota WorkForce Center - Red Wing","Street_Address":"1606 West Third Street","City":"Red Wing","State":"MN","Zip":"55066-0033","LATITUDE":44.562181,"LONGITUDE":-92.549976},
{"TYPE":"Comprehensive Job Center","NAME":"Minnesota WorkForce Center - Anoka County","Street_Address":"1201 89th Avenue NE, Suite 235","City":"Blaine","State":"MN","Zip":"55434","LATITUDE":45.131859,"LONGITUDE":-93.240866},
{"TYPE":"Comprehensive Job Center","NAME":"Minnesota WorkForce Center - Little Falls","Street_Address":"609 13th Ave NE, G","City":"Little Falls","State":"MN","Zip":"56345","LATITUDE":45.990491,"LONGITUDE":-94.350470},
{"TYPE":"Comprehensive Job Center","NAME":"Minnesota WorkForce Center - Mankato","Street_Address":"12 Civic Center Plaza, Suite 1600A","City":"Mankato","State":"MN","Zip":"56001-7796","LATITUDE":44.164129,"LONGITUDE":-94.004984},
{"TYPE":"Comprehensive Job Center","NAME":"Minnesota WorkForce Center - Ramsey County - St. Paul","Street_Address":"540 Fairview Ave. North, Suite 100","City":"St. Paul","State":"MN","Zip":"55104","LATITUDE":44.958062,"LONGITUDE":-93.177158},
{"TYPE":"Comprehensive Job Center","NAME":"Minnesota WorkForce Center - Minneapolis North","Street_Address":"1200 Plymouth Avenue North","City":"Minneapolis","State":"MN","Zip":"55411-0040","LATITUDE":44.992015,"LONGITUDE":-93.296199},
{"TYPE":"Comprehensive Job Center","NAME":"Minnesota WorkForce Center - Minneapolis South","Street_Address":"777 East Lake Street","City":"Minneapolis","State":"MN","Zip":"55407-1546","LATITUDE":44.948303,"LONGITUDE":-93.263025},
{"TYPE":"Comprehensive Job Center","NAME":"Minnesota WorkForce Center - Montevideo","Street_Address":"202 North 1st Street, Suite 100","City":"Montevideo","State":"MN","Zip":"56265","LATITUDE":44.946459,"LONGITUDE":-95.724498},
{"TYPE":"Comprehensive Job Center","NAME":"Minnesota WorkForce Center - Mora","Street_Address":"903 E. Forest Avenue","City":"Mora","State":"MN","Zip":"55051-1617","LATITUDE":45.876469,"LONGITUDE":-93.284977},
{"TYPE":"Comprehensive Job Center","NAME":"Minnesota WorkForce Center - Willmar","Street_Address":"2200 23rd Street North East, Suite 2040; Kandiyohi County Health and Human Services Building","City":"Willmar","State":"MN","Zip":"56201-9423","LATITUDE":45.140926,"LONGITUDE":-95.009197},
{"TYPE":"Comprehensive Job Center","NAME":"Minnesota WorkForce Center - Bemidji","Street_Address":"616 America Avenue NW, Suite 210","City":"Bemidji","State":"MN","Zip":"56601","LATITUDE":47.473881,"LONGITUDE":-94.884191},
{"TYPE":"Comprehensive Job Center","NAME":"Minnesota WorkForce Center - Winona","Street_Address":"1250 Homer Rd., Suite 200; Minnesota State College - Southeast Technical","City":"Winona","State":"MN","Zip":"55987-4842","LATITUDE":44.026546,"LONGITUDE":-91.621069},
{"TYPE":"Comprehensive Job Center","NAME":"Minnesota WorkForce Center - Alexandria","Street_Address":"303 22nd Avenue W, Suite 107","City":"Alexandria","State":"MN","Zip":"56308","LATITUDE":45.867603,"LONGITUDE":-95.381383},
{"TYPE":"Comprehensive Job Center","NAME":"Minnesota WorkForce Center - Austin","Street_Address":"1600 8th Avenue NW","City":"Austin","State":"MN","Zip":"55912-1400","LATITUDE":43.674026,"LONGITUDE":-92.995169},
{"TYPE":"Comprehensive Job Center","NAME":"Minnesota WorkForce Center - International Falls","Street_Address":"1501 Highway 71, Rm SC 128; Rainy River Community College","City":"International Falls","State":"MN","Zip":"56649","LATITUDE":48.610016,"LONGITUDE":-93.321060},
{"TYPE":"Comprehensive Job Center","NAME":"Minnesota WorkForce Center - Fairmont","Street_Address":"412 South State Street","City":"Fairmont","State":"MN","Zip":"56031-0767","LATITUDE":43.649788,"LONGITUDE":-94.447449},
{"TYPE":"Comprehensive Job Center","NAME":"Minnesota WorkForce Center - Wadena","Street_Address":"124 1st Street SE, Suite 3","City":"Wadena","State":"MN","Zip":"56482-0643","LATITUDE":46.440434,"LONGITUDE":-95.135717},