[{"City": " Palmer", "NAME": "Alaska Job Corps Center", "Zip": "99645", "LONGITUDE": -149.099859, "State": "AK", "LATITUDE": 61.589839, "TYPE": "Job Corps Center", "Street_Address": " 800 E. Lynn Martin Drive"}, {"City": "Albuquerque", "NAME": "Albuquerque Job Corps Center", "Zip": "87104", "LONGITUDE": -106.660863, "State": "NM", "LATITUDE": 35.109403, "TYPE": "Job Corps Center", "Street_Address": " 1500 Indian School Road"}, {"City": " Anaconda", "NAME": "Anaconda Job Corps Civilian Conservation Center", "Zip": "59711", "LONGITUDE": -113.137171, "State": "MT", "LATITUDE": 46.1823243, "TYPE": "Job Corps Center", "Street_Address": " 1407 Foster Creek Road"}, {"City": " Yachats", "NAME": "Angell Job Corps Civilian Conservation Center", "Zip": "97498", "LONGITUDE": -124.0870314, "State": "OR", "LATITUDE": 44.3624441, "TYPE": "Job Corps Center", "Street_Address": " 335 N.E. Blodgett Road"}, {"City": " Garrochales", "NAME": "Arecibo Job Corps Center", "Zip": "00652-0544", "LONGITUDE": -66.5819231, "State": "PR", "LATITUDE": 18.4551549, "TYPE": "Job Corps Center", "Street_Address": " P.O. Box 544"}, {"City": "Atlanta", "NAME": "Atlanta Job Corps Center", "Zip": "30314", "LONGITUDE": -84.442157, "State": "GA", "LATITUDE": 33.760599, "TYPE": "Job Corps Center", "Street_Address": " 239 West Lake Avenue"}, {"City": "Edinburgh", "NAME": "Atterbury Job Corps Center", "Zip": "46124", "LONGITUDE": -86.0228744, "State": "IN", "LATITUDE": 39.3603498, "TYPE": "Job Corps Center", "Street_Address": " 1025-A Hospital Rd. "}, {"City": " Bamberg", "NAME": "Bamberg Job Corps Center", "Zip": "29003", "LONGITUDE": -81.0348202, "State": "SC", "LATITUDE": 33.2971012, "TYPE": "Job Corps Center", "Street_Address": " 19 Job Corps Avenue"}, {"City": " Barranquitas", "NAME": "Barranquitas Job Corps Center", "Zip": "794", "LONGITUDE": -66.0315044, "State": "PR", "LATITUDE": 18.3962199, "TYPE": "Job Corps Center", "Street_Address": " P.O. Box 68"}, {"City": "South Batesville", "NAME": "Batesville Job Corps Center", "Zip": "38606", "LONGITUDE": -88.6132576, "State": "MS", "LATITUDE": 45.526769, "TYPE": "Job Corps Center", "Street_Address": " 821 Highway 51, "}, {"City": "Laona", "NAME": "Blackwell Job Corps Civilian Conservation Center", "Zip": "54541", "LONGITUDE": -89.9431359, "State": "WI", "LATITUDE": 34.3162976, "TYPE": "Job Corps Center", "Street_Address": " 4155 County Highway H "}, {"City": " Marion", "NAME": "Blue Ridge Job Corps Center", "Zip": "24354", "LONGITUDE": -81.5224654, "State": "VA", "LATITUDE": 36.8316486, "TYPE": "Job Corps Center", "Street_Address": " 245 West Main Street"}, {"City": "Nemo", "NAME": "Boxelder Job Corps Civilian Conservation Center", "Zip": "57759", "LONGITUDE": -103.5507274, "State": "SD", "LATITUDE": 44.2109645, "TYPE": "Job Corps Center", "Street_Address": " 22023 Job Corps Place P.O. Box 110 "}, {"City": " Brooklyn", "NAME": "Brooklyn Job Corps Center", "Zip": "11205", "LONGITUDE": -73.9527937, "State": "NY", "LATITUDE": 40.6917438, "TYPE": "Job Corps Center", "Street_Address": "585 DeKalb Avenue"}, {"City": "Brunswick", "NAME": "Brunswick Job Corps Center", "Zip": "31525", "LONGITUDE": -81.5377013, "State": "GA", "LATITUDE": 31.3262391, "TYPE": "Job Corps Center", "Street_Address": " 4401 Glynco Industrial Parkway "}, {"City": "Prestonsburg", "NAME": "Carl D. Perkins Job Corps Center", "Zip": "41653-1501", "LONGITUDE": -82.7674952, "State": "KY", "LATITUDE": 37.6797328, "TYPE": "Job Corps Center", "Street_Address": " 478 Meadows Branch "}, {"City": " Carville", "NAME": "Carville Job Corps Center", "Zip": "70721", "LONGITUDE": -91.1233175, "State": "LA", "LATITUDE": 30.1972657, "TYPE": "Job Corps Center", "Street_Address": " 5465 Point Clair Road"}, {"City": "Sedro Woolley", "NAME": "Cascades Job Corps Center", "Zip": "98284-8241", "LONGITUDE": -122.126565, "State": "WA", "LATITUDE": 48.540308, "TYPE": "Job Corps Center", "Street_Address": " 7782 Northern State Road"}, {"City": "Ozark", "NAME": "Cass Job Corps Civilian Conservation Center", "Zip": "72949", "LONGITUDE": -93.8193372, "State": "AR", "LATITUDE": 35.687895, "TYPE": "Job Corps Center", "Street_Address": " 21424 N. Highway 23 "}, {"City": " Cassadaga", "NAME": "Cassadaga Job Corps Center", "Zip": "14718-9619", "LONGITUDE": -79.334157, "State": "NY", "LATITUDE": 42.352207, "TYPE": "Job Corps Center", "Street_Address": " 8115 Glasgow Road"}, {"City": " Nampa", "NAME": "Centennial Job Corps Civilian Conservation Center", "Zip": "83687", "LONGITUDE": -116.5269554, "State": "ID", "LATITUDE": 43.6047103, "TYPE": "Job Corps Center", "Street_Address": " 3201 Ridgecrest Drive"}, {"City": " Charleston", "NAME": "Charleston Job Corps Center", "Zip": "25311", "LONGITUDE": -81.5798405, "State": "WV", "LATITUDE": 38.3325837, "TYPE": "Job Corps Center", "Street_Address": " 1000 Kennawa Drive"}, {"City": " Cincinnati", "NAME": "Cincinnati Job Corps Center", "Zip": "45214", "LONGITUDE": -84.532124, "State": "OH", "LATITUDE": 39.1105084, "TYPE": "Job Corps Center", "Street_Address": " 1409 Western Avenue"}, {"City": " Clearfield", "NAME": "Clearfield Job Corps Center", "Zip": "84016-0070", "LONGITUDE": -81.5887496, "State": "UT", "LATITUDE": 41.5526808, "TYPE": "Job Corps Center", "Street_Address": " 20 West 1700 South"}, {"City": " Cleveland", "NAME": "Cleveland Job Corps Center", "Zip": "44110", "LONGITUDE": -112.025907, "State": "OH", "LATITUDE": 41.089586, "TYPE": "Job Corps Center", "Street_Address": " 13421 Coit Road"}, {"City": "Collbran", "NAME": "Collbran Job Corps Civilian Conservation Center", "Zip": "81624-9702", "LONGITUDE": -107.977755, "State": "CO", "LATITUDE": 39.238402, "TYPE": "Job Corps Center", "Street_Address": " 57608 Highway 330 "}, {"City": "Moses Lake", "NAME": "Columbia Basin Job Corps Civilian Conservation Center", "Zip": "98837-3246", "LONGITUDE": -119.3198919, "State": "WA", "LATITUDE": 47.186971, "TYPE": "Job Corps Center", "Street_Address": " 6739 24th Street"}, {"City": " Curlew", "NAME": "Curlew Job Corps Civilian Conservation Center", "Zip": "99118", "LONGITUDE": -118.765441, "State": "WA", "LATITUDE": 48.9326246, "TYPE": "Job Corps Center", "Street_Address": " 3 Campus Street"}, {"City": "El Paso", "NAME": "David L. Carrasco Job Corps Center", "Zip": "79935", "LONGITUDE": -106.329166, "State": "TX", "LATITUDE": 31.744134, "TYPE": "Job Corps Center", "Street_Address": " 11155 Gateway West "}, {"City": "Dayton", "NAME": "Dayton Job Corps Center", "Zip": "45418", "LONGITUDE": -75.0561947, "State": "OH", "LATITUDE": 41.7671955, "TYPE": "Job Corps Center", "Street_Address": " 3849 Germantown Pike "}, {"City": "Callicoon", "NAME": "Delaware Valley Job Corps Center", "Zip": "12723-0846", "LONGITUDE": -84.256098, "State": "NY", "LATITUDE": 39.73455, "TYPE": "Job Corps Center", "Street_Address": " 9368 State Route 97 P.O. Box 846 "}, {"City": "Denison", "NAME": "Denison Job Corps Center", "Zip": "51442", "LONGITUDE": -95.3252833, "State": "IA", "LATITUDE": 42.0159368, "TYPE": "Job Corps Center", "Street_Address": " 10 Opportunity Drive"}, {"City": "Detroit", "NAME": "Detroit Job Corps Center", "Zip": "48206", "LONGITUDE": -83.1039947, "State": "MI", "LATITUDE": 42.3879837, "TYPE": "Job Corps Center", "Street_Address": " 11801 Woodrow Wilson "}, {"City": " Memphis", "NAME": "Dr. Benjamin L. Hooks Job Corps Center", "Zip": "38116", "LONGITUDE": -90.0096337, "State": "TN", "LATITUDE": 34.9974717, "TYPE": "Job Corps Center", "Street_Address": " 1555 McAlister Drive"}, {"City": "East Morganfield", "NAME": "Earle C. Clements Job Corps Center", "Zip": "42437", "LONGITUDE": -87.9015938, "State": "KY", "LATITUDE": 37.6751097, "TYPE": "Job Corps Center", "Street_Address": " 2302 U.S. Highway 60 "}, {"City": " Edison", "NAME": "Edison Job Corps Center", "Zip": "8817", "LONGITUDE": -74.414692, "State": "NJ", "LATITUDE": 40.525821, "TYPE": "Job Corps Center", "Street_Address": " 500 Plainfield Avenue"}, {"City": " Excelsior Springs", "NAME": "Excelsior Springs Job Corps Center", "Zip": "64024", "LONGITUDE": -94.2306626, "State": "MO", "LATITUDE": 39.3363639, "TYPE": "Job Corps Center", "Street_Address": " 701 St. Louis Avenue"}, {"City": " Exeter", "NAME": "Exeter Job Corps Center", "Zip": "2822", "LONGITUDE": -71.5430415, "State": "RI", "LATITUDE": 41.5522398, "TYPE": "Job Corps Center", "Street_Address": " 162 Main Street"}, {"City": " Coeburn", "NAME": "Flatwoods Job Corps Civilian Conservation Center", "Zip": "24230", "LONGITUDE": -82.4598776, "State": "VA", "LATITUDE": 36.8939867, "TYPE": "Job Corps Center", "Street_Address": " 2803 Dungannon Road"}, {"City": " Manhattan", "NAME": "Flint Hills Job Corps Center", "Zip": "66503-8488", "LONGITUDE": -96.651999, "State": "KS", "LATITUDE": 39.153697, "TYPE": "Job Corps Center", "Street_Address": " 4620 Eureka Drive"}, {"City": " Flint", "NAME": "Flint-Genesee Job Corps Center", "Zip": "48505", "LONGITUDE": -83.6938472, "State": "MI", "LATITUDE": 43.0380664, "TYPE": "Job Corps Center", "Street_Address": " 2400 North Saginaw Street"}, {"City": "White Swan", "NAME": "Fort Simcoe Job Corps Civilian Conservation Center", "Zip": "98952", "LONGITUDE": -110.942837, "State": "WA", "LATITUDE": 32.209585, "TYPE": "Job Corps Center", "Street_Address": " 40 Abella Lane "}, {"City": " Tucson", "NAME": "Fred G. Acosta Job Corps Center", "Zip": "85719-6596", "LONGITUDE": -120.8569696, "State": "AZ", "LATITUDE": 46.3376985, "TYPE": "Job Corps Center", "Street_Address": " 901 South Campbell Avenue"}, {"City": " Frenchburg", "NAME": "Frenchburg Job Corps Civilian Conservation Center", "Zip": "40322", "LONGITUDE": -83.6201195, "State": "KY", "LATITUDE": 37.8768993, "TYPE": "Job Corps Center", "Street_Address": " 6969 Tarr Ridge Road"}, {"City": " Gadsden", "NAME": "Gadsden Job Corps Center", "Zip": "35902", "LONGITUDE": -85.9951417, "State": "AL", "LATITUDE": 34.0247153, "TYPE": "Job Corps Center", "Street_Address": " 600 Valley Street"}, {"City": "Gainesville", "NAME": "Gainesville Job Corps Center", "Zip": "32601", "LONGITUDE": -82.2694269, "State": "FL", "LATITUDE": 29.704038, "TYPE": "Job Corps Center", "Street_Address": " 5301 N.E. 40th Terrace  "}, {"City": "San Marcos", "NAME": "Gary Job Corps Center", "Zip": "78667", "LONGITUDE": -97.8932188, "State": "TX", "LATITUDE": 29.8842359, "TYPE": "Job Corps Center", "Street_Address": " 2800 Airport, Highway 21 P.O. Box 967 "}, {"City": "Grand Rapids", "NAME": "Gerald R. Ford Job Corps Center", "Zip": "49507", "LONGITUDE": -85.664676, "State": "MI", "LATITUDE": 42.94015, "TYPE": "Job Corps Center", "Street_Address": " 110 Hall Street"}, {"City": "Glenmont", "NAME": "Glenmont Job Corps Center", "Zip": "12077-0993", "LONGITUDE": -73.754992, "State": "NY", "LATITUDE": 42.568906, "TYPE": "Job Corps Center", "Street_Address": " 822 River Road"}, {"City": "Golconda", "NAME": "Golconda Job Corps Civilian Conservation Center", "Zip": "62938", "LONGITUDE": -88.4864316, "State": "IL", "LATITUDE": 37.3672744, "TYPE": "Job Corps Center", "Street_Address": "Rural Route 1, Box 104A "}, {"City": " North Grafton", "NAME": "Grafton Job Corps Center", "Zip": "1536", "LONGITUDE": -71.6835066, "State": "MA", "LATITUDE": 42.2517348, "TYPE": "Job Corps Center", "Street_Address": " 100 Pine Street"}, {"City": " Mammoth Cave", "NAME": "Great Onyx Job Corps Civilian Conservation Center", "Zip": "42259", "LONGITUDE": -86.2203049, "State": "KY", "LATITUDE": 37.2512201, "TYPE": "Job Corps Center", "Street_Address": " 3115 Ollie Ridge Road"}, {"City": " Gulfport", "NAME": "Gulfport Job Corps Center", "Zip": "39501", "LONGITUDE": -89.101618, "State": "Mississippi", "LATITUDE": 30.3745798, "TYPE": "Job Corps Center", "Street_Address": " 3300 20th Street"}, {"City": "Guthrie", "NAME": "Guthrie Job Corps Center", "Zip": "73044", "LONGITUDE": -97.478806, "State": "OK", "LATITUDE": 35.8713848, "TYPE": "Job Corps Center", "Street_Address": " 3106 W. University "}, {"City": " Harpers Ferry", "NAME": "Harpers Ferry Job Corps Civilian Conservation Center", "Zip": "25425", "LONGITUDE": -77.813042, "State": "WV", "LATITUDE": 39.347232, "TYPE": "Job Corps Center", "Street_Address": " 146 Buffalo Drive"}, {"City": " Hartford", "NAME": "Hartford Job Corps Center", "Zip": "6106", "LONGITUDE": -72.7095907, "State": "CT", "LATITUDE": 41.7405949, "TYPE": "Job Corps Center", "Street_Address": " 100 William Shorty Campbell Street"}, {"City": " Waimanalo", "NAME": "Hawaii Job Corps Center", "Zip": "96795", "LONGITUDE": -157.7196886, "State": "HI", "LATITUDE": 21.3426998, "TYPE": "Job Corps Center", "Street_Address": "41-467 Hihimanu Street"}, {"City": " Homestead", "NAME": "Homestead Job Corps Center", "Zip": "33033", "LONGITUDE": -80.4213938, "State": "FL", "LATITUDE": 25.5024927, "TYPE": "Job Corps Center", "Street_Address": " 12350 S.W. 285th Street"}, {"City": " St. Paul", "NAME": "Hubert H. Humphrey Job Corps Center", "Zip": "55108", "LONGITUDE": -93.165916, "State": "MN", "LATITUDE": 44.984759, "TYPE": "Job Corps Center", "Street_Address": " 1480 North Snelling Avenue"}, {"City": " Indianapolis", "NAME": "IndyPendence Job Corps Center", "Zip": "46204", "LONGITUDE": -86.153583, "State": "IN", "LATITUDE": 39.770123, "TYPE": "Job Corps Center", "Street_Address": "222 E. Ohio Street"}, {"City": " San Bernardino", "NAME": "Inland Empire Job Corps Center", "Zip": "92405", "LONGITUDE": -117.338558, "State": "CA", "LATITUDE": 34.1519692, "TYPE": "Job Corps Center", "Street_Address": "3173 Kerry Street"}, {"City": " Medina", "NAME": "Iroquois Job Corps Center", "Zip": "14103", "LONGITUDE": -78.3606146, "State": "NY", "LATITUDE": 43.1415701, "TYPE": "Job Corps Center", "Street_Address": " 11780 Tibbets Road"}, {"City": "Jacksonville", "NAME": "Jacksonville Job Corps Center", "Zip": "32209", "LONGITUDE": -81.6966306, "State": "FL", "LATITUDE": 30.3617348, "TYPE": "Job Corps Center", "Street_Address": " 4811 Payne Stewart Way "}, {"City": " Bristol", "NAME": "Jacobs Creek Job Corps Civilian Conservation Center", "Zip": "37620", "LONGITUDE": -81.983736, "State": "TN", "LATITUDE": 36.562135, "TYPE": "Job Corps Center", "Street_Address": " 984 Denton Valley Road"}, {"City": " Joliet", "NAME": "Joliet Job Corps Center", "Zip": "60433", "LONGITUDE": -88.055718, "State": "IL", "LATITUDE": 41.504865, "TYPE": "Job Corps Center", "Street_Address": " 1101 Mills Road"}, {"City": " Drums", "NAME": "Keystone Job Corps Center", "Zip": "18222", "LONGITUDE": -75.99043, "State": "PA", "LATITUDE": 41.0022262, "TYPE": "Job Corps Center", "Street_Address": " 235 West Foothills Drive"}, {"City": "Ronan", "NAME": "Kicking Horse Job Corps Center", "Zip": "59864", "LONGITUDE": -114.0394336, "State": "MT", "LATITUDE": 47.4788881, "TYPE": "Job Corps Center", "Street_Address": " 33091 Mollman Pass Trail "}, {"City": "Kittrell", "NAME": "Kittrell Job Corps Center", "Zip": "27544", "LONGITUDE": -99.5108684, "State": "NC", "LATITUDE": 27.5505532, "TYPE": "Job Corps Center", "Street_Address": " 1096 U.S. Highway, #1 South P.O. Box 278 "}, {"City": "Laredo", "NAME": "Laredo Job Corps Center", "Zip": "78044-1819", "LONGITUDE": -78.4190673, "State": "TX", "LATITUDE": 36.2639479, "TYPE": "Job Corps Center", "Street_Address": " 1701 Island Street"}, {"City": " Little Rock", "NAME": "Little Rock Job Corps Center", "Zip": "72209", "LONGITUDE": -92.318156, "State": "AR", "LATITUDE": 34.68652, "TYPE": "Job Corps Center", "Street_Address": " 6900 Scott Hamilton Drive"}, {"City": " Long Beach", "NAME": "Long Beach Job Corps Center", "Zip": "90810-4050", "LONGITUDE": -118.2160018, "State": "CA", "LATITUDE": 33.7921943, "TYPE": "Job Corps Center", "Street_Address": "1903 Santa Fe Avenue"}, {"City": " Limestone", "NAME": "Loring Job Corps Center", "Zip": "4750", "LONGITUDE": -67.9009039, "State": "ME", "LATITUDE": 46.9354698, "TYPE": "Job Corps Center", "Street_Address": " 36 Montana Road"}, {"City": "Los Angeles", "NAME": "Los Angeles Job Corps Center", "Zip": "90015", "LONGITUDE": -118.2590498, "State": "CA", "LATITUDE": 34.0393625, "TYPE": "Job Corps Center", "Street_Address": "1106 South Broad Way"}, {"City": " Franklin", "NAME": "Lyndon B. Johnson Job Corps Civilian Conservation Center", "Zip": "28734", "LONGITUDE": -83.5111463, "State": "NC", "LATITUDE": 35.1643802, "TYPE": "Job Corps Center", "Street_Address": " 3170 Wayah Road"}, {"City": "Maui", "NAME": "Maui Job Corps Center", "Zip": "96768", "LONGITUDE": -156.339416, "State": "Hawaii", "LATITUDE": 20.886657, "TYPE": "Job Corps Center", "Street_Address": "500 Ike Drive"}, {"City": " Miami Gardens", "NAME": "Miami Job Corps Center", "Zip": "33056-3536", "LONGITUDE": -80.2515342, "State": "FL", "LATITUDE": 25.9405198, "TYPE": "Job Corps Center", "Street_Address": " 3050 N.W. 183rd Street"}, {"City": " Milwaukee", "NAME": "Milwaukee Job Corps Center", "Zip": "53223", "LONGITUDE": -87.988861, "State": "WI", "LATITUDE": 43.139414, "TYPE": "Job Corps Center", "Street_Address": " 6665 N 60th Street"}, {"City": "Puxico", "NAME": "Mingo Job Corps Civilian Conservation Center", "Zip": "63960", "LONGITUDE": -90.2005258, "State": "MO", "LATITUDE": 36.9373714, "TYPE": "Job Corps Center", "Street_Address": "4253 State Highway T "}, {"City": "Crystal Springs", "NAME": "Mississippi Job Corps Center", "Zip": "39059", "LONGITUDE": -90.3431309, "State": "MS", "LATITUDE": 31.9803693, "TYPE": "Job Corps Center", "Street_Address": " 400 Harmony Road"}, {"City": "Montgomery", "NAME": "Montgomery Job Corps Center", "Zip": "36108", "LONGITUDE": -86.3419306, "State": "AL", "LATITUDE": 32.3482426, "TYPE": "Job Corps Center", "Street_Address": " 1145 Air Base Boulevard "}, {"City": "Greenville", "NAME": "Muhlenberg Job Corps Center", "Zip": "42345", "LONGITUDE": -87.1932009, "State": "KY", "LATITUDE": 37.2318987, "TYPE": "Job Corps Center", "Street_Address": " 3875 State Route Highway 181 North "}, {"City": " New Haven", "NAME": "New Haven Job Corps Center", "Zip": "6515", "LONGITUDE": -72.9607987, "State": "CT", "LATITUDE": 41.3417375, "TYPE": "Job Corps Center", "Street_Address": " 455 Wintergreen Avenue"}, {"City": " New Orleans", "NAME": "New Orleans Job Corps Center", "Zip": "70118", "LONGITUDE": -90.1259769, "State": "LA", "LATITUDE": 29.9720818, "TYPE": "Job Corps Center", "Street_Address": " 8825 Airline Drive"}, {"City": " McKinney", "NAME": "North Texas Job Corps Center", "Zip": "75069", "LONGITUDE": -96.61791, "State": "TX", "LATITUDE": 33.221386, "TYPE": "Job Corps Center", "Street_Address": " 1701 N. Church Street"}, {"City": " Vergennes", "NAME": "Northlands Job Corps Center", "Zip": "5491", "LONGITUDE": -73.2619589, "State": "VT", "LATITUDE": 44.1703727, "TYPE": "Job Corps Center", "Street_Address": " 100A MacDonough Drive"}, {"City": " Cherokee", "NAME": "Oconaluftee Job Corps Civilian Conservation Center", "Zip": "28719", "LONGITUDE": -83.3056355, "State": "NC", "LATITUDE": 35.5221884, "TYPE": "Job Corps Center", "Street_Address": " 502 Oconaluftee Job Corps Road"}, {"City": " Monroe", "NAME": "Old Dominion Job Corps Center", "Zip": "24574", "LONGITUDE": -79.1282725, "State": "VA", "LATITUDE": 37.5540769, "TYPE": "Job Corps Center", "Street_Address": " 1073 Father Judge Road"}, {"City": " Oneonta", "NAME": "Oneonta Job Corps Center", "Zip": "13820", "LONGITUDE": -75.0688227, "State": "NY", "LATITUDE": 42.4759913, "TYPE": "Job Corps Center", "Street_Address": " 21 Homer Folks Avenue"}, {"City": " Ottumwa", "NAME": "Ottumwa ", "Zip": "52501", "LONGITUDE": -92.4347971, "State": "IA", "LATITUDE": 41.106966, "TYPE": "Job Corps Center", "Street_Address": " 15229 Truman Street"}, {"City": " Royal", "NAME": "Ouachita Job Corps Civilian Conservation Center", "Zip": "71968", "LONGITUDE": -93.1986418, "State": "AR", "LATITUDE": 34.5390242, "TYPE": "Job Corps Center", "Street_Address": " 570 Job Corps Road"}, {"City": " Portland", "NAME": "Partners in Vocational Opportunity Training (PIVOT) Job Corps Center", "Zip": "97210", "LONGITUDE": -122.7083825, "State": "OR", "LATITUDE": 45.5375748, "TYPE": "Job Corps Center", "Street_Address": "2701 N.W. Vaughn Street"}, {"City": " Chicago", "NAME": "Paul Simon Chicago Job Corps Center", "Zip": "60623", "LONGITUDE": -87.706161, "State": "IL", "LATITUDE": 41.832292, "TYPE": "Job Corps Center", "Street_Address": "3348 South Kedzie Avenue"}, {"City": " Bangor", "NAME": "Penobscot Job Corps Center", "Zip": "4401", "LONGITUDE": -68.8197128, "State": "ME", "LATITUDE": 44.8216428, "TYPE": "Job Corps Center", "Street_Address": " 1375 Union Street"}, {"City": " Philadelphia", "NAME": "Philadelphia Job Corps Center", "Zip": "19145", "LONGITUDE": -75.1811333, "State": "PA", "LATITUDE": 39.9172978, "TYPE": "Job Corps Center", "Street_Address": " 2810 South 20th Street"}, {"City": " Phoenix", "NAME": "Phoenix Job Corps Center", "Zip": "85004", "LONGITUDE": -112.070116, "State": "AZ", "LATITUDE": 33.442478, "TYPE": "Job Corps Center", "Street_Address": " 518 South Third Street"}, {"City": " Pine Knot", "NAME": "Pine Knot Job Corps Civilian Conservation Center", "Zip": "42635", "LONGITUDE": -84.446378, "State": "KY", "LATITUDE": 36.66849, "TYPE": "Job Corps Center", "Street_Address": " 132 Job Corps Road"}, {"City": "Chadron", "NAME": "Pine Ridge Job Corps Civilian Conservation Center", "Zip": "69337", "LONGITUDE": -102.9694607, "State": "NE", "LATITUDE": 42.6323432, "TYPE": "Job Corps Center", "Street_Address": " 15710 Highway 385 "}, {"City": " South St Petersburg", "NAME": "Pinellas County Job Corps Center", "Zip": "33712", "LONGITUDE": -79.9016663, "State": "FL", "LATITUDE": 40.4784351, "TYPE": "Job Corps Center", "Street_Address": " 500 22nd Street"}, {"City": " Pittsburgh", "NAME": "Pittsburgh Job Corps Center", "Zip": "15206", "LONGITUDE": -82.661751, "State": "PA", "LATITUDE": 27.765333, "TYPE": "Job Corps Center", "Street_Address": " 7175 Highland Drive"}, {"City": "Washington", "NAME": "Potomac Job Corps Center", "Zip": "20032", "LONGITUDE": -77.0130996, "State": "DC", "LATITUDE": 38.8175866, "TYPE": "Job Corps Center", "Street_Address": " #1 DC Village Lane S.W. "}, {"City": " Minot", "NAME": "Quentin-Burdick Job Corps Center", "Zip": "58703", "LONGITUDE": -101.3163308, "State": "ND", "LATITUDE": 48.2452023, "TYPE": "Job Corps Center", "Street_Address": " 1500 University Avenue"}, {"City": "Aguadilla", "NAME": "Ramey Job Corps Center", "Zip": "00604-0463", "LONGITUDE": -67.15407, "State": "PR", "LATITUDE": 18.427445, "TYPE": "Job Corps Center", "Street_Address": " P.O. Box 250463 Belt St.  Ramey Base "}, {"City": "Lopez", "NAME": "Red Rock Job Corps Center", "Zip": "18628", "LONGITUDE": -76.3852858, "State": "PA", "LATITUDE": 41.1870795, "TYPE": "Job Corps Center", "Street_Address": " Route 487 North P.O. Box 218 "}, {"City": "Roswell", "NAME": "Roswell Job Corps Center", "Zip": "88202", "LONGITUDE": -104.5172917, "State": "NM", "LATITUDE": 33.3132848, "TYPE": "Job Corps Center", "Street_Address": "57 G Street"}, {"City": " Sacramento", "NAME": "Sacramento Job Corps Center", "Zip": "95832-1498", "LONGITUDE": -121.4725124, "State": "CA", "LATITUDE": 38.4812508, "TYPE": "Job Corps Center", "Street_Address": " 3100 Meadowview Road"}, {"City": " Imperial Beach", "NAME": "San Diego Job Corps", "Zip": "95832", "LONGITUDE": -117.1035023, "State": "CA", "LATITUDE": 32.5690207, "TYPE": "Job Corps Center", "Street_Address": "1325 Iris Avenue"}, {"City": " San Jose", "NAME": "San Jose Job Corps Center", "Zip": "95127-2970", "LONGITUDE": -121.82053, "State": "CA", "LATITUDE": 37.3669614, "TYPE": "Job Corps Center", "Street_Address": " 3485 East Hills Drive"}, {"City": " Pisgah Forest", "NAME": "Schenck Job Corps Civilian Conservation Center", "Zip": "28768", "LONGITUDE": -82.7186651, "State": "NC", "LATITUDE": 35.2772116, "TYPE": "Job Corps Center", "Street_Address": " 98 Schenck Drive"}, {"City": " Shreveport", "NAME": "Shreveport Job Corps Center", "Zip": "71109", "LONGITUDE": -93.783358, "State": "LA", "LATITUDE": 32.492468, "TYPE": "Job Corps Center", "Street_Address": " 2815 Lillian Street"}, {"City": " Devens", "NAME": "Shriver Job Corps Center", "Zip": "1434", "LONGITUDE": -71.6066725, "State": "MA", "LATITUDE": 42.5516077, "TYPE": "Job Corps Center", "Street_Address": " 270 Jackson Road"}, {"City": " Reno", "NAME": "Sierra Nevada  Job Corps Center", "Zip": "89506-1225", "LONGITUDE": -119.8865035, "State": "NV", "LATITUDE": 39.6546464, "TYPE": "Job Corps Center", "Street_Address": "5505 Echo Avenue"}, {"City": " Bronx", "NAME": "South Bronx Job Corps Center", "Zip": "10453", "LONGITUDE": -73.9162867, "State": "NY", "LATITUDE": 40.8510595, "TYPE": "Job Corps Center", "Street_Address": " 1771 Andrews Avenue"}, {"City": "Troutdale", "NAME": "Springdale Job Corps Center", "Zip": "97060", "LONGITUDE": -122.338106, "State": "OR", "LATITUDE": 45.516688, "TYPE": "Job Corps Center", "Street_Address": " 31224 E. Historic Columbia River Highway "}, {"City": "St. Louis", "NAME": "St. Louis Job Corps Center", "Zip": "63120", "LONGITUDE": -94.98531, "State": "MO", "LATITUDE": 35.841191, "TYPE": "Job Corps Center", "Street_Address": " 4333 Goodfellow Boulevard "}, {"City": "Tahlequah", "NAME": "Talking Leaves Job Corps Center", "Zip": "74465", "LONGITUDE": -90.2687707, "State": "OK", "LATITUDE": 38.6920843, "TYPE": "Job Corps Center", "Street_Address": " 5700 Bald Hill Road"}, {"City": " Estacada", "NAME": "Timber Lake Job Corps Civilian Conservation Center", "Zip": "97023", "LONGITUDE": -122.253398, "State": "OR", "LATITUDE": 45.2327361, "TYPE": "Job Corps Center", "Street_Address": " 59868 East Highway 224"}, {"City": "Astoria", "NAME": "Tongue Point Job Corps Center", "Zip": "97103-7000", "LONGITUDE": -114.166523, "State": "OR", "LATITUDE": 45.899701, "TYPE": "Job Corps Center", "Street_Address": " 37573 Old Highway #30 "}, {"City": " Darby", "NAME": "Trapper Creek Job Corps Civilian Conservation Center", "Zip": "59829", "LONGITUDE": -123.5862047, "State": "MT", "LATITUDE": 46.169829, "TYPE": "Job Corps Center", "Street_Address": " 5139 West Fork Road"}, {"City": " San Francisco", "NAME": "Treasure Island Job Corps Center", "Zip": "94130-5027", "LONGITUDE": -122.3689575, "State": "CA", "LATITUDE": 37.8237423, "TYPE": "Job Corps Center", "Street_Address": " 351 H Avenue"}, {"City": " Indiahoma", "NAME": "Treasure Lake Job Corps Civilian Conservation Center", "Zip": "73552", "LONGITUDE": -98.7385868, "State": "OK", "LATITUDE": 34.6986405, "TYPE": "Job Corps Center", "Street_Address": " 1111 Indiahoma Road"}, {"City": " Tulsa", "NAME": "Tulsa Job Corps Center", "Zip": "74110", "LONGITUDE": -84.1052712, "State": "OK", "LATITUDE": 31.6021344, "TYPE": "Job Corps Center", "Street_Address": " 1133 N. Lewis Avenue"}, {"City": " Albany ", "NAME": "Turner Job Corps Center", "Zip": "31705", "LONGITUDE": -111.9019776, "State": "GA", "LATITUDE": 41.1323887, "TYPE": "Job Corps Center", "Street_Address": " 2000 Schilling Avenue"}, {"City": " Ogden", "NAME": "Weber Basin Job Corps Civilian Conservation Center", "Zip": "84405", "LONGITUDE": -95.9574831, "State": "UT", "LATITUDE": 36.1711147, "TYPE": "Job Corps Center", "Street_Address": " 7400 South Cornia Drive"}, {"City": " Chicopee", "NAME": "Westover Job Corps Center", "Zip": "1022", "LONGITUDE": -72.5623956, "State": "MA", "LATITUDE": 42.1964446, "TYPE": "Job Corps Center", "Street_Address": " 103 Johnson Road"}, {"City": " Simpsonville", "NAME": "Whitney M. Young Jr. Job Corps Center", "Zip": "40067", "LONGITUDE": -85.3748667, "State": "KY", "LATITUDE": 38.2241172, "TYPE": "Job Corps Center", "Street_Address": " 8460 Shelbyville Road"}, {"City": " Wilmington", "NAME": "Wilmington Job Corps Center", "Zip": "19802", "LONGITUDE": -122.932159, "State": "DE", "LATITUDE": 43.243092, "TYPE": "Job Corps Center", "Street_Address": " 9 Vandever Avenue"}, {"City": "Glide", "NAME": "Wolf Creek Job Corps Civilian Conservation Center", "Zip": "97443", "LONGITUDE": -75.5395535, "State": "OR", "LATITUDE": 39.7522053, "TYPE": "Job Corps Center", "Street_Address": " 2010 Opportunity Lane "}, {"City": " Laurel", "NAME": "Woodland Job Corps Center", "Zip": "20724", "LONGITUDE": -76.8700528, "State": "MD", "LATITUDE": 39.3355186, "TYPE": "Job Corps Center", "Street_Address": " 3300 Fort Meade Road"}, {"City": " Woodstock", "NAME": "Woodstock Job Corps Center ", "Zip": "21163", "LONGITUDE": -76.7791062, "State": "MD", "LATITUDE": 39.0918324, "TYPE": "Job Corps Center", "Street_Address": "10900 Old Court Road"}]